[{"venueid": 610, "venuename": "Middle East - Upstairs", "city": "Cambridge", "state": "MA", "address": "472 Massachusetts Ave", "lat": "42.363697", "lng": "-71.1013086", "facebookurl": "https://www.facebook.com/mideastclub/", "gig_count": 4743, "band_count": 3290, "first_gig": "2016-11-02", "last_gig": "2019-09-06"}, {"venueid": 1238, "venuename": "Middle East - Downstairs", "city": "Cambridge", "state": "MA", "address": "472-480 Massachusetts Avenue", "lat": "42.37361580", "lng": "-71.10973349999", "facebookurl": "https://www.facebook.com/mideastclub/", "gig_count": 2364, "band_count": 1887, "first_gig": "2014-09-07", "last_gig": "2019-11-14"}, {"venueid": 6565, "venuename": "O'Brien's Pub", "city": "Boston", "state": "MA", "address": "3 Harvard Ave", "lat": "42.3552199", "lng": "-71.1329162", "facebookurl": "https://www.facebook.com/OBriensAllston/", "gig_count": 2286, "band_count": 1438, "first_gig": "2013-04-19", "last_gig": "2019-08-04"}, {"venueid": 10644, "venuename": "Thunder Road", "city": "Somerville", "state": "MA", "address": "379 Somerville Ave", "lat": "42.381616", "lng": "-71.100055", "facebookurl": "https://www.facebook.com/thunderroadclub/", "gig_count": 1549, "band_count": 856, "first_gig": "2016-11-01", "last_gig": "2019-09-26"}, {"venueid": 9396, "venuename": "Brighton Music Hall", "city": "Boston", "state": "MA", "address": "158 Brighton Ave", "lat": "42.3528732", "lng": "-71.1325896", "facebookurl": "http://www.facebook.com/BrightonMusicHall", "gig_count": 1281, "band_count": 1105, "first_gig": "2016-07-01", "last_gig": "2019-08-03"}, {"venueid": 55, "venuename": "Great Scott", "city": "Boston", "state": "MA", "address": "1222 Commonwealth Avenue", "lat": "42.3500363", "lng": "-71.13059009999", "facebookurl": "https://www.facebook.com/GreatScottBoston/", "gig_count": 1241, "band_count": 1009, "first_gig": "2016-10-23", "last_gig": "2019-08-04"}, {"venueid": 10714, "venuename": "Middle East - Corner/Bakery", "city": "Cambridge", "state": "MA", "address": "480 Massachusetts Ave", "lat": "42.3638089", "lng": "-71.1014227", "facebookurl": "https://www.facebook.com/mideastclub/", "gig_count": 1224, "band_count": 459, "first_gig": "2016-11-19", "last_gig": "2021-10-02"}, {"venueid": 10676, "venuename": "The Sinclair", "city": "Cambridge", "state": "MA", "address": "52 Church St", "lat": "42.3739749", "lng": "-71.1205932", "facebookurl": "https://www.facebook.com/SinclairCambridge/", "gig_count": 1167, "band_count": 916, "first_gig": "2016-11-01", "last_gig": "2019-08-04"}, {"venueid": 8275, "venuename": "House of Blues Boston", "city": "Boston", "state": "MA", "address": "15 Lansdowne St", "lat": "42.3473545", "lng": "-71.0956687", "facebookurl": "https://www.facebook.com/HOBBoston/", "gig_count": 1088, "band_count": 905, "first_gig": "2016-11-02", "last_gig": "2019-07-31"}, {"venueid": 12, "venuename": "Paradise Rock Club", "city": "Boston", "state": "MA", "address": "967 Comm. Ave.", "lat": "42.35172720", "lng": "-71.04086239999", "facebookurl": "https://www.facebook.com/ParadiseRockClub/", "gig_count": 846, "band_count": 716, "first_gig": "2016-11-01", "last_gig": "2019-07-31"}, {"venueid": 10692, "venuename": "Royale", "city": "Boston", "state": "MA", "address": "279 Tremont St", "lat": "42.349995799999", "lng": "-71.0656288", "facebookurl": "https://www.facebook.com/RoyaleNightclubBoston/", "gig_count": 751, "band_count": 590, "first_gig": "2016-11-04", "last_gig": "2019-08-02"}, {"venueid": 10812, "venuename": "The Jetty", "city": "Marshfield", "state": "MA", "address": "278 Ocean St", "lat": "42.0915155", "lng": "-70.6449981", "facebookurl": null, "gig_count": 729, "band_count": 207, "first_gig": "2016-10-28", "last_gig": "2020-03-29"}, {"venueid": 101, "venuename": "Lizard Lounge", "city": "Cambridge", "state": "MA", "address": "1667 Massachusetts Avenue", "lat": "42.37361580", "lng": "-71.10973349999", "facebookurl": "https://www.facebook.com/lizardloungecambridge/", "gig_count": 640, "band_count": 357, "first_gig": "2016-11-04", "last_gig": "2019-08-03"}, {"venueid": 10557, "venuename": "Atwood's Tavern", "city": "Cambridge", "state": "MA", "address": "877 Cambridge St", "lat": "42.3727297", "lng": "-71.0914477", "facebookurl": "https://www.facebook.com/atwoodstavern/", "gig_count": 588, "band_count": 341, "first_gig": "2015-02-28", "last_gig": "2020-02-29"}, {"venueid": 10678, "venuename": "Midway Café", "city": "Boston", "state": "MA", "address": "3496 Washington Street", "lat": "42.3600825", "lng": "-71.0588801", "facebookurl": "https://www.facebook.com/themidway/", "gig_count": 535, "band_count": 426, "first_gig": "2016-11-01", "last_gig": "2019-08-04"}, {"venueid": 45, "venuename": "Club Passim", "city": "Cambridge", "state": "MA", "address": "47 Palmer St.", "lat": null, "lng": null, "facebookurl": "https://www.facebook.com/clubpassim/", "gig_count": 408, "band_count": 295, "first_gig": "2016-11-03", "last_gig": "2019-08-02"}, {"venueid": 10700, "venuename": "Once Lounge & Musichall", "city": "Somerville", "state": "MA", "address": "72 Cherry St", "lat": "42.3928336", "lng": "-71.1142483", "facebookurl": "https://www.facebook.com/ONCEsomerville/", "gig_count": 376, "band_count": 323, "first_gig": "2016-11-17", "last_gig": "2019-07-19"}, {"venueid": 6185, "venuename": "The Lily Pad", "city": "Cambridge", "state": "MA", "address": "1353 Cambridge Street", "lat": null, "lng": null, "facebookurl": null, "gig_count": 307, "band_count": 263, "first_gig": "2016-11-05", "last_gig": "2019-07-26"}, {"venueid": 87, "venuename": "The Burren", "city": "Somerville", "state": "MA", "address": "247 Elm St", "lat": null, "lng": null, "facebookurl": "https://www.facebook.com/Burrenpub/", "gig_count": 257, "band_count": 195, "first_gig": "2016-11-11", "last_gig": "2019-12-19"}, {"venueid": 7001, "venuename": "The Plough & Stars", "city": "Cambridge", "state": "MA", "address": "Mass Ave", "lat": "42.37361580", "lng": "-71.10973349999", "facebookurl": null, "gig_count": 236, "band_count": 161, "first_gig": "2016-10-30", "last_gig": "2019-07-26"}, {"venueid": 3726, "venuename": "The Grand Canal", "city": "Boston", "state": "MA", "address": "7 Canal Street", "lat": "42.35172720", "lng": "-71.04086239999", "facebookurl": null, "gig_count": 229, "band_count": 143, "first_gig": "2012-08-04", "last_gig": "2019-08-02"}, {"venueid": 2866, "venuename": "Boston Rocks", "city": "Boston", "state": "MA", "address": "Fanueil Hall", "lat": "42.35172720", "lng": "-71.04086239999", "facebookurl": null, "gig_count": 227, "band_count": 202, "first_gig": "2016-12-02", "last_gig": "2019-08-04"}, {"venueid": 8897, "venuename": "Slapshotz Sports Pub", "city": "Avon", "state": "MA", "address": "39 E. Main St. (Rt. 28)", "lat": "42.13032", "lng": "-71.039482", "facebookurl": "http://facebook.com/slapshotzpub", "gig_count": 210, "band_count": 54, "first_gig": "2012-03-01", "last_gig": "2017-01-06"}, {"venueid": 4659, "venuename": "PA's Lounge", "city": "Somerville", "state": "MA", "address": "345 Somerville Ave", "lat": null, "lng": null, "facebookurl": "https://www.facebook.com/PAs-Lounge-36103893402/", "gig_count": 210, "band_count": 184, "first_gig": "2016-11-04", "last_gig": "2019-03-08"}, {"venueid": 10682, "venuename": "The Wilbur", "city": "Boston", "state": "MA", "address": "246 Tremont St", "lat": "42.3507223", "lng": "-71.0646599", "facebookurl": "https://www.facebook.com/thewilburboston/", "gig_count": 209, "band_count": 189, "first_gig": "2016-11-06", "last_gig": "2019-08-02"}, {"venueid": 10813, "venuename": "Blue Hills Bank Pavilion", "city": "Boston", "state": "MA", "address": "290 Northern Avenue", "lat": "42.3485681", "lng": "-71.0362637", "facebookurl": null, "gig_count": 205, "band_count": 188, "first_gig": "2017-01-04", "last_gig": "2019-07-21"}, {"venueid": 10690, "venuename": "Dedham Square Coffeehouse", "city": "Dedham", "state": "MA", "address": "565 High St", "lat": "42.2481212", "lng": "-71.17260379999", "facebookurl": "https://www.facebook.com/DedhamSquareCoffeehouse/", "gig_count": 193, "band_count": 142, "first_gig": "2016-11-12", "last_gig": "2019-05-10"}, {"venueid": 320, "venuename": "Scullers Jazz Club", "city": "Boston", "state": "MA", "address": "400 Soldiers Field Road", "lat": "42.37361580", "lng": "-71.10973349999", "facebookurl": "https://www.facebook.com/scullers.jazz/", "gig_count": 174, "band_count": 140, "first_gig": "2016-11-03", "last_gig": "2019-06-27"}, {"venueid": 6965, "venuename": "Sally OBrien", "city": "Somerville", "state": "MA", "address": "225 Somerville Ave", "lat": null, "lng": null, "facebookurl": null, "gig_count": 171, "band_count": 106, "first_gig": "2013-09-06", "last_gig": "2019-07-27"}, {"venueid": 3110, "venuename": "The Berklee Performance Center", "city": "Boston", "state": "MA", "address": "136 Massachusetts Ave.", "lat": null, "lng": null, "facebookurl": "https://www.facebook.com/berkleeperformancecenter/", "gig_count": 165, "band_count": 151, "first_gig": "2016-11-14", "last_gig": "2019-06-27"}, {"venueid": 10701, "venuename": "Laugh Boston", "city": "Boston", "state": "MA", "address": "425 Summer St", "lat": "42.3457313", "lng": "-71.0435238", "facebookurl": null, "gig_count": 163, "band_count": 83, "first_gig": "2016-11-17", "last_gig": "2018-12-14"}, {"venueid": 2157, "venuename": "The Orpheum Theater", "city": "Boston", "state": "MA", "address": "1 Hamilton Place", "lat": "42.35172720", "lng": "-71.04086239999", "facebookurl": "https://www.facebook.com/OrpheumBoston/", "gig_count": 163, "band_count": 149, "first_gig": "2016-11-04", "last_gig": "2019-05-29"}, {"venueid": 1030, "venuename": "Out of the Blue Gallery", "city": "Cambridge", "state": "MA", "address": "541 Massachusetts Avenue", "lat": "42.37361580", "lng": "-71.10973349999", "facebookurl": null, "gig_count": 156, "band_count": 144, "first_gig": "2016-11-18", "last_gig": "2019-06-01"}, {"venueid": 10683, "venuename": "ONCE Somerville", "city": "Somerville", "state": "MA", "address": "156 Highland Ave", "lat": "42.3928336", "lng": "-71.1142483", "facebookurl": "https://www.facebook.com/ONCEsomerville/", "gig_count": 156, "band_count": 150, "first_gig": "2016-10-31", "last_gig": "2019-07-29"}, {"venueid": 9357, "venuename": "Celley's Pub & Grub", "city": "Lynn", "state": "MA", "address": "742 Western Avenue", "lat": null, "lng": null, "facebookurl": "https://www.facebook.com/celleyspub", "gig_count": 151, "band_count": 6, "first_gig": "2012-07-07", "last_gig": "2017-01-13"}, {"venueid": 3336, "venuename": "Sammy's Patio", "city": "Revere", "state": "MA", "address": "Revere Beach Boulevard", "lat": null, "lng": null, "facebookurl": null, "gig_count": 151, "band_count": 130, "first_gig": "2016-06-17", "last_gig": "2019-08-02"}, {"venueid": 5456, "venuename": "Hajjar's", "city": "Weymouth", "state": "MA", "address": "969 Washington Street", "lat": "42.21807240", "lng": "-70.94103559999", "facebookurl": null, "gig_count": 148, "band_count": 38, "first_gig": "2012-01-19", "last_gig": "2018-03-03"}, {"venueid": 10718, "venuename": "Club Bohemia at the Cantab Lounge", "city": "Cambridge", "state": "MA", "address": "738 Massachusetts Ave", "lat": "42.3661049", "lng": "-71.10544899999", "facebookurl": null, "gig_count": 147, "band_count": 124, "first_gig": "2016-11-25", "last_gig": "2019-07-26"}, {"venueid": 5292, "venuename": "Wonder Bar", "city": "Allston", "state": "MA", "address": "186 Harvard Ave", "lat": null, "lng": null, "facebookurl": "https://www.facebook.com/wonderbar1/", "gig_count": 147, "band_count": 133, "first_gig": "2016-11-01", "last_gig": "2019-07-28"}, {"venueid": 829, "venuename": "Boston Hatch Shell", "city": "Boston", "state": "MA", "address": "Esplanade", "lat": "42.35172720", "lng": "-71.04086239999", "facebookurl": null, "gig_count": 136, "band_count": 47, "first_gig": "2017-02-12", "last_gig": "2019-06-15"}, {"venueid": 6811, "venuename": "Mari's Place", "city": "Quincy", "state": "MA", "address": "35 Washington Street", "lat": "42.251368199999", "lng": "-70.99628749999", "facebookurl": null, "gig_count": 133, "band_count": 28, "first_gig": "2012-06-01", "last_gig": "2013-03-29"}, {"venueid": 5780, "venuename": "BBC Pembroke", "city": "Pembroke", "state": "MA", "address": "15 Columbia Rd", "lat": "42.1068592", "lng": "-70.8078749", "facebookurl": null, "gig_count": 131, "band_count": 36, "first_gig": "2003-01-12", "last_gig": "2018-04-14"}, {"venueid": 9264, "venuename": "Quan's Kitchen", "city": "Hanover", "state": "MA", "address": "871 Washington St", "lat": "42.1295363", "lng": "-70.83252659999", "facebookurl": null, "gig_count": 120, "band_count": 32, "first_gig": "2012-06-01", "last_gig": "2018-08-18"}, {"venueid": 9109, "venuename": "The Tinker's Son", "city": "Norwell", "state": "MA", "address": "707 Main St", "lat": "42.1616895", "lng": "-70.7912302", "facebookurl": "https://www.facebook.com/The-Tinkers-Son-298510983506/", "gig_count": 118, "band_count": 30, "first_gig": "2012-06-22", "last_gig": "2018-04-27"}, {"venueid": 10754, "venuename": "Bijou Nightclub", "city": "Boston", "state": "MA", "address": "51 Stuart St", "lat": "42.3511995", "lng": "-71.0641984", "facebookurl": null, "gig_count": 118, "band_count": 96, "first_gig": "2016-12-09", "last_gig": "2019-07-27"}, {"venueid": 10790, "venuename": "Dorchester Art Project", "city": "Boston", "state": "MA", "address": "1486 Dorchester Ave", "lat": "42.299869", "lng": "-71.060024", "facebookurl": null, "gig_count": 113, "band_count": 107, "first_gig": "2016-12-19", "last_gig": "2019-07-18"}, {"venueid": 10861, "venuename": "Player's Sports Bar and Grille", "city": "ROCKLAND", "state": "MA", "address": "86 VFW DRIVE", "lat": null, "lng": null, "facebookurl": "https://www.facebook.com/playerssports.bar.12/", "gig_count": 108, "band_count": 46, "first_gig": "2012-02-16", "last_gig": "2018-03-23"}, {"venueid": 261, "venuename": "Toad", "city": "Cambridge", "state": "MA", "address": "1912 Massachusetts Ave", "lat": "42.3890159", "lng": "-71.1199895", "facebookurl": "https://www.facebook.com/toadcambridge/", "gig_count": 107, "band_count": 53, "first_gig": "2013-04-17", "last_gig": "2019-07-27"}, {"venueid": 10721, "venuename": "Lynn Memorial Auditorium", "city": "Lynn", "state": "MA", "address": "3 City Hall Square", "lat": "42.464808", "lng": "-70.9512139", "facebookurl": null, "gig_count": 106, "band_count": 94, "first_gig": "2016-11-26", "last_gig": "2019-08-01"}, {"venueid": 307, "venuename": "Bell In Hand Tavern", "city": "Boston", "state": "MA", "address": "45 Union St", "lat": "42.3615117", "lng": "-71.0570445", "facebookurl": null, "gig_count": 101, "band_count": 11, "first_gig": "2012-06-30", "last_gig": "2018-11-06"}, {"venueid": 10782, "venuename": "Harry's Pub & Grill", "city": "Brockton", "state": "MA", "address": "65 Westgate Dr", "lat": "42.090374", "lng": "-71.048193", "facebookurl": null, "gig_count": 98, "band_count": 16, "first_gig": "2012-06-22", "last_gig": "2018-09-14"}, {"venueid": 33, "venuename": "Hard Rock Cafe", "city": "Boston", "state": "MA", "address": "131 Clarendon St .", "lat": "42.35172720", "lng": "-71.04086239999", "facebookurl": null, "gig_count": 97, "band_count": 92, "first_gig": "2017-01-07", "last_gig": "2019-06-15"}, {"venueid": 8490, "venuename": "Daddy's Beach Club", "city": "Hull", "state": "MA", "address": "280 Nantasket Ave", "lat": "42.274059", "lng": "-70.860967", "facebookurl": "https://www.facebook.com/pages/Daddys-Beach-Club/357061361228", "gig_count": 95, "band_count": 15, "first_gig": "2012-06-01", "last_gig": "2018-03-10"}, {"venueid": 10702, "venuename": "Wonderland Ballroom", "city": "Revere", "state": "MA", "address": "1290 N Shore Rd", "lat": "42.414231500000", "lng": "-70.9920296", "facebookurl": null, "gig_count": 92, "band_count": 80, "first_gig": "2016-11-11", "last_gig": "2019-07-20"}, {"venueid": 8749, "venuename": "Venus III", "city": "Hanson", "state": "MA", "address": "252 Main Street", "lat": "42.0432903", "lng": "-70.85123499999997", "facebookurl": "https://www.facebook.com/pages/Venus-3/143600799015461", "gig_count": 91, "band_count": 21, "first_gig": "2012-06-02", "last_gig": "2017-12-15"}, {"venueid": 6265, "venuename": "Great Chow", "city": "Abington", "state": "MA", "address": "497 Bedford St", "lat": null, "lng": null, "facebookurl": null, "gig_count": 87, "band_count": 9, "first_gig": "2012-06-01", "last_gig": "2017-02-10"}, {"venueid": 8242, "venuename": "The Next Page Blues Cafe", "city": "Weymouth", "state": "MA", "address": "550 Broad St", "lat": "42.217714500000", "lng": "-70.9372192", "facebookurl": null, "gig_count": 85, "band_count": 18, "first_gig": "2012-06-08", "last_gig": "2019-02-15"}, {"venueid": 8, "venuename": "Regattabar", "city": "Cambridge", "state": "MA", "address": "Charles Hotel, Harvard Sq", "lat": "42.37361580", "lng": "-71.10973349999", "facebookurl": "https://www.facebook.com/TheRegattabar/", "gig_count": 84, "band_count": 73, "first_gig": "2016-11-15", "last_gig": "2019-07-25"}, {"venueid": 8472, "venuename": "McGuiggans Pub", "city": "Whitman", "state": "MA", "address": "546 Washington St", "lat": "42.0806564", "lng": "-70.935599", "facebookurl": "https://www.facebook.com/McGuiggans-Pub-172085208172/", "gig_count": 81, "band_count": 29, "first_gig": "2012-06-16", "last_gig": "2017-12-30"}, {"venueid": 10530, "venuename": "Somerville Theatre", "city": "Somerville", "state": "MA", "address": "55 Davis Square", "lat": null, "lng": null, "facebookurl": null, "gig_count": 77, "band_count": 70, "first_gig": "2014-08-31", "last_gig": "2019-05-11"}, {"venueid": 8736, "venuename": "The Wang Theatre", "city": "Boston", "state": "MA", "address": "Tremont Street", "lat": "42.35172720", "lng": "-71.04086239999", "facebookurl": null, "gig_count": 76, "band_count": 61, "first_gig": "2016-11-30", "last_gig": "2019-06-01"}, {"venueid": 2102, "venuename": "CHARLIES KITCHEN", "city": "CAMBRIDGE", "state": "MA", "address": "HARVARD SQUARE", "lat": "42.37361580", "lng": "-71.10973349999", "facebookurl": null, "gig_count": 75, "band_count": 68, "first_gig": "2017-02-20", "last_gig": "2019-07-29"}, {"venueid": 70, "venuename": "Natick Center For The Arts", "city": "Natick", "state": "MA", "address": "31 Main Street", "lat": null, "lng": null, "facebookurl": null, "gig_count": 72, "band_count": 52, "first_gig": "2016-12-02", "last_gig": "2019-08-03"}, {"venueid": 4531, "venuename": "Cabby Shack", "city": "Plymouth", "state": "MA", "address": " ", "lat": "41.9584457", "lng": "-70.6672621", "facebookurl": "https://www.facebook.com/thecabbyshack/", "gig_count": 71, "band_count": 20, "first_gig": "2012-06-29", "last_gig": "2019-08-23"}, {"venueid": 10753, "venuename": "The Rockwell", "city": "Somerville", "state": "MA", "address": "255 Elm Street", "lat": "42.3956472", "lng": "-71.1216639", "facebookurl": "https://www.facebook.com/rockwellthtr/", "gig_count": 69, "band_count": 62, "first_gig": "2016-12-05", "last_gig": "2019-03-13"}, {"venueid": 10527, "venuename": "Tommy Doyles- Sidelines", "city": "Brockton", "state": "MA", "address": "235 E Ashland St", "lat": "42.0961582", "lng": "-71.0090819", "facebookurl": null, "gig_count": 67, "band_count": 10, "first_gig": "2012-12-08", "last_gig": "2022-05-13"}, {"venueid": 8855, "venuename": "Royal Garden", "city": "Kingston", "state": "MA", "address": "3 Tremont St", "lat": "42.0074786", "lng": "-70.7302672", "facebookurl": null, "gig_count": 67, "band_count": 28, "first_gig": "2013-10-04", "last_gig": "2018-06-29"}, {"venueid": 9195, "venuename": "The New World Tavern", "city": "Plymouth", "state": "MA", "address": "56 Main St", "lat": "41.9568809", "lng": "-70.6651169", "facebookurl": "https://www.facebook.com/TheNewWorldTavern/", "gig_count": 65, "band_count": 36, "first_gig": "2012-11-09", "last_gig": "2019-07-18"}, {"venueid": 9423, "venuename": "The Driftwood Publick House", "city": "Plymouth", "state": "MA", "address": null, "lat": null, "lng": null, "facebookurl": null, "gig_count": 64, "band_count": 3, "first_gig": "2013-05-28", "last_gig": "2017-01-05"}, {"venueid": 10708, "venuename": "The Spire Center for Performing Arts", "city": "Plymouth", "state": "MA", "address": "25 Court St", "lat": "41.9578954", "lng": "-70.66620279999", "facebookurl": "https://www.facebook.com/SpireCenter/", "gig_count": 64, "band_count": 53, "first_gig": "2016-11-10", "last_gig": "2019-06-14"}, {"venueid": 10686, "venuename": "Loretta's Last Call", "city": "Boston", "state": "MA", "address": "1 Lansdowne St", "lat": "42.3473143", "lng": "-71.0944726", "facebookurl": "https://www.facebook.com/LorettasLastCall/", "gig_count": 64, "band_count": 31, "first_gig": "2016-11-10", "last_gig": "2019-08-01"}, {"venueid": 9350, "venuename": "Ming Dynasty", "city": "Marshfield", "state": "MA", "address": "Rt 139", "lat": "42.09174530", "lng": "-70.70558710", "facebookurl": null, "gig_count": 60, "band_count": 24, "first_gig": "2013-03-09", "last_gig": "2018-04-21"}, {"venueid": 10828, "venuename": "Milky Way Lounge & Bella Luna Restaurant", "city": "Boston", "state": "MA", "address": "284 Amory St", "lat": "42.3147124", "lng": "-71.1045648", "facebookurl": null, "gig_count": 60, "band_count": 52, "first_gig": "2017-01-13", "last_gig": "2019-07-31"}, {"venueid": 9087, "venuename": "Damien's Pub", "city": "Hanson", "state": "MA", "address": "279 Spring Street", "lat": null, "lng": null, "facebookurl": null, "gig_count": 58, "band_count": 12, "first_gig": "2012-06-09", "last_gig": "2017-11-23"}, {"venueid": 10744, "venuename": "Hardcore Stadium (Cambridge Elks)", "city": "Cambridge", "state": "MA", "address": "55 Bishop Allen Dr", "lat": "42.3648764", "lng": "-71.1005024", "facebookurl": null, "gig_count": 58, "band_count": 56, "first_gig": "2016-12-03", "last_gig": "2018-08-26"}, {"venueid": 6889, "venuename": "The East Bay Grille", "city": "Plymouth", "state": "MA", "address": "173 Water Street", "lat": "41.95843670", "lng": "-70.66725760", "facebookurl": "https://www.facebook.com/EastBayGrille/", "gig_count": 56, "band_count": 23, "first_gig": "2012-06-23", "last_gig": "2018-04-14"}, {"venueid": 10572, "venuename": "Main Street Sports Bar and Grill", "city": "Plymouth", "state": "MA", "address": "39 Main St", "lat": "41.9565464", "lng": "-70.66428479999", "facebookurl": "https://www.facebook.com/mainstsports/", "gig_count": 55, "band_count": 5, "first_gig": "2015-06-17", "last_gig": "2017-10-28"}, {"venueid": 10749, "venuename": "Chevalier Theatre", "city": "Medford", "state": "MA", "address": "30 Forest St", "lat": "42.4196366", "lng": "-71.10925449999", "facebookurl": null, "gig_count": 55, "band_count": 50, "first_gig": "2016-12-03", "last_gig": "2019-07-20"}, {"venueid": 4984, "venuename": "McGann's Pub", "city": "Boston", "state": "MA", "address": "197 Portland Street", "lat": null, "lng": null, "facebookurl": null, "gig_count": 54, "band_count": 47, "first_gig": "2016-12-09", "last_gig": "2019-07-13"}, {"venueid": 8628, "venuename": "BBC Framingham", "city": "Framingham", "state": "MA", "address": "120 Worcester Road (Rte 9)", "lat": null, "lng": null, "facebookurl": null, "gig_count": 53, "band_count": 11, "first_gig": "2012-06-02", "last_gig": "2014-06-07"}, {"venueid": 10752, "venuename": "State Park Bar", "city": "Cambridge", "state": "MA", "address": " ", "lat": "42.3736158", "lng": "-71.10973349999", "facebookurl": null, "gig_count": 53, "band_count": 43, "first_gig": "2016-12-04", "last_gig": "2019-07-07"}, {"venueid": 5283, "venuename": "STARS on Hingham Harbor", "city": "Hingham", "state": "MA", "address": "3 Otis St. (Route 3a)", "lat": null, "lng": null, "facebookurl": "https://www.facebook.com/starshingham", "gig_count": 53, "band_count": 6, "first_gig": "2013-02-09", "last_gig": "2018-03-10"}, {"venueid": 9356, "venuename": "Tavern at the End of the World", "city": "Boston", "state": "MA", "address": "108 Cambridge St", "lat": "42.3821889", "lng": "-71.07938799999", "facebookurl": null, "gig_count": 52, "band_count": 34, "first_gig": "2012-12-20", "last_gig": "2018-05-01"}, {"venueid": 10840, "venuename": "British Beer Company", "city": "Pembroke", "state": "MA", "address": " ", "lat": null, "lng": null, "facebookurl": null, "gig_count": 51, "band_count": 18, "first_gig": "2017-02-11", "last_gig": "2018-08-27"}, {"venueid": 10795, "venuename": "JP Ryan's ", "city": "Abington", "state": "MA", "address": " ", "lat": "42.1048228", "lng": "-70.9453218", "facebookurl": null, "gig_count": 48, "band_count": 22, "first_gig": "2012-06-01", "last_gig": "2017-03-20"}, {"venueid": 10449, "venuename": "Maggy's Lounge", "city": "Quincy", "state": "MA", "address": "609 Washington Street", "lat": null, "lng": null, "facebookurl": null, "gig_count": 48, "band_count": 37, "first_gig": "2013-11-30", "last_gig": "2020-02-29"}, {"venueid": 10432, "venuename": "Haddad's Ocean Cafe", "city": "Marshfield", "state": "MA", "address": "291 Ocean Street", "lat": null, "lng": null, "facebookurl": "https://www.facebook.com/Haddads-Ocean-Cafe-282601755164671/", "gig_count": 47, "band_count": 6, "first_gig": "2013-08-03", "last_gig": "2017-11-18"}, {"venueid": 10825, "venuename": "Deep Thoughts", "city": "Boston", "state": "MA", "address": "138b South St", "lat": "42.3053493", "lng": "-71.1144327", "facebookurl": null, "gig_count": 47, "band_count": 43, "first_gig": "2017-01-07", "last_gig": "2019-06-05"}, {"venueid": 1433, "venuename": "Somerville Theater", "city": "Somerville", "state": "MA", "address": null, "lat": "42.386681", "lng": "-71.098259", "facebookurl": null, "gig_count": 47, "band_count": 43, "first_gig": "2016-11-20", "last_gig": "2019-07-15"}, {"venueid": 9155, "venuename": "SPOTLIGHT TAVERN", "city": "Beverly", "state": "MA", "address": "208 Rantoul St", "lat": "42.548545", "lng": "-70.884158", "facebookurl": null, "gig_count": 47, "band_count": 27, "first_gig": "2012-02-22", "last_gig": "2017-09-01"}, {"venueid": 10745, "venuename": "Cabot Theatre", "city": "Beverly", "state": "MA", "address": "286 Cabot St", "lat": "42.5514594", "lng": "-70.8788807", "facebookurl": null, "gig_count": 45, "band_count": 45, "first_gig": "2016-12-03", "last_gig": "2019-06-14"}, {"venueid": 8212, "venuename": "Trinity Bar and Restaurant", "city": "Norton", "state": "MA", "address": "184 West Main Street", "lat": null, "lng": null, "facebookurl": null, "gig_count": 45, "band_count": 8, "first_gig": "2012-06-01", "last_gig": "2015-11-07"}, {"venueid": 9205, "venuename": "Presidents Rock Club", "city": "Quincy", "state": "MA", "address": "1546 Hancock Street", "lat": "42.25287720", "lng": "-71.00227049999", "facebookurl": null, "gig_count": 45, "band_count": 16, "first_gig": "2012-06-09", "last_gig": "2014-07-25"}, {"venueid": 9365, "venuename": "The Lodge Bar and Grille", "city": "Randolph", "state": "MA", "address": "1064 N Main St", "lat": "42.1919893", "lng": "-71.05952689999", "facebookurl": null, "gig_count": 44, "band_count": 10, "first_gig": "2013-02-22", "last_gig": "2018-06-16"}, {"venueid": 795, "venuename": "Boston Cable TV", "city": "Boston", "state": "MA", "address": "Channel 3", "lat": "42.35172720", "lng": "-71.04086239999", "facebookurl": null, "gig_count": 43, "band_count": 43, "first_gig": "2017-05-26", "last_gig": "2017-05-26"}, {"venueid": 6192, "venuename": "BBC Walpole", "city": "Walpole", "state": "MA", "address": "85 Providence Highway", "lat": null, "lng": null, "facebookurl": null, "gig_count": 42, "band_count": 12, "first_gig": "2012-04-26", "last_gig": "2016-10-29"}, {"venueid": 782, "venuename": "The Cantab Lounge", "city": "Cambridge", "state": "MA", "address": "738 Mass Ave", "lat": "42.37361580", "lng": "-71.10973349999", "facebookurl": "https://www.facebook.com/Cantab-Lounge-210838257159/", "gig_count": 42, "band_count": 37, "first_gig": "2012-06-30", "last_gig": "2019-07-22"}, {"venueid": 9349, "venuename": "The Red Rose Cafe", "city": "E.Weymouth", "state": "MA", "address": "Broad St.", "lat": null, "lng": null, "facebookurl": null, "gig_count": 40, "band_count": 4, "first_gig": "2012-01-16", "last_gig": "2017-01-07"}, {"venueid": 10806, "venuename": "J.P. Ryan's Tavern", "city": "Abington", "state": "MA", "address": "246 Brockton Avenue", "lat": null, "lng": null, "facebookurl": "https://www.facebook.com/JPRyansTavern/", "gig_count": 39, "band_count": 11, "first_gig": "2016-12-23", "last_gig": "2017-12-23"}, {"venueid": 3450, "venuename": "The Good Life", "city": "Boston", "state": "MA", "address": "28 Kingston Street", "lat": "42.35172720", "lng": "-71.04086239999", "facebookurl": null, "gig_count": 39, "band_count": 38, "first_gig": "2016-11-04", "last_gig": "2019-06-28"}, {"venueid": 9340, "venuename": "Mr. Dooley's Tavern", "city": "Cohasset", "state": "MA", "address": "9 Depot Ct", "lat": "42.24125", "lng": "-70.80305630000", "facebookurl": "https://www.facebook.com/MrDooleysCohasset/", "gig_count": 39, "band_count": 4, "first_gig": "2012-02-01", "last_gig": "2017-04-01"}, {"venueid": 6798, "venuename": "The Dog Bar", "city": "Gloucester", "state": "MA", "address": "65 Main Street", "lat": null, "lng": null, "facebookurl": null, "gig_count": 38, "band_count": 3, "first_gig": "2012-06-23", "last_gig": "2014-12-13"}, {"venueid": 1990, "venuename": "CambridgeSide Galleria", "city": "Cambridge", "state": "MA", "address": "100 CambridgeSide Place", "lat": null, "lng": null, "facebookurl": null, "gig_count": 38, "band_count": 36, "first_gig": "2017-02-17", "last_gig": "2019-07-14"}, {"venueid": 7428, "venuename": "Waxy O'Connor's Foxboro", "city": "Foxborough", "state": "MA", "address": "121 Main St", "lat": "42.074136", "lng": "-71.25811899999", "facebookurl": "https://www.facebook.com/waxysfox/", "gig_count": 37, "band_count": 8, "first_gig": "2012-06-16", "last_gig": "2017-04-07"}, {"venueid": 10868, "venuename": "Barrel House Z", "city": "Weymouth", "state": "MA", "address": " ", "lat": null, "lng": null, "facebookurl": null, "gig_count": 37, "band_count": 5, "first_gig": "2017-05-06", "last_gig": "2019-06-15"}, {"venueid": 5845, "venuename": "Fenway Park", "city": "Boston", "state": "MA", "address": null, "lat": "42.35172720", "lng": "-71.04086239999", "facebookurl": null, "gig_count": 37, "band_count": 28, "first_gig": "2017-04-14", "last_gig": "2019-07-28"}, {"venueid": 2855, "venuename": "Hennessy's", "city": "Boston", "state": "MA", "address": "25 Union St.", "lat": null, "lng": null, "facebookurl": "https://www.facebook.com/hennessys.boston", "gig_count": 37, "band_count": 35, "first_gig": "2016-11-17", "last_gig": "2018-09-20"}, {"venueid": 10622, "venuename": "BBC Plymouth", "city": "Plymouth", "state": "MA", "address": "6 Middle Street", "lat": "41.9569831", "lng": "-70.663428", "facebookurl": "http://www.facebook.com/BritishBeerPlymouth", "gig_count": 36, "band_count": 8, "first_gig": "2016-08-30", "last_gig": "2017-05-23"}, {"venueid": 347, "venuename": "Hong Kong Restaurantal", "city": "Boston", "state": "MA", "address": "Chatam St.", "lat": "42.35172720", "lng": "-71.04086239999", "facebookurl": null, "gig_count": 36, "band_count": 36, "first_gig": "2019-03-21", "last_gig": "2019-07-30"}, {"venueid": 7248, "venuename": "Barretts Ale House", "city": "Bridgewater", "state": "MA", "address": "425 Bedford St", "lat": "41.9765", "lng": "-70.9753", "facebookurl": null, "gig_count": 36, "band_count": 8, "first_gig": "2012-07-20", "last_gig": "2018-12-08"}, {"venueid": 370, "venuename": "The Tap", "city": "Boston", "state": "MA", "address": "Union Street", "lat": "42.35172720", "lng": "-71.04086239999", "facebookurl": null, "gig_count": 36, "band_count": 4, "first_gig": "2012-06-09", "last_gig": "2013-12-27"}, {"venueid": 4691, "venuename": "BBC Cedarville", "city": "Cedarville", "state": "MA", "address": "2294 State Road", "lat": null, "lng": null, "facebookurl": null, "gig_count": 35, "band_count": 22, "first_gig": "2012-06-23", "last_gig": "2017-03-31"}, {"venueid": 10703, "venuename": "Ascend Nightclub", "city": "Boston", "state": "MA", "address": "295 Franklin St", "lat": "42.3570312", "lng": "-71.052752", "facebookurl": null, "gig_count": 35, "band_count": 31, "first_gig": "2016-11-19", "last_gig": "2018-11-29"}, {"venueid": 6350, "venuename": "All Seasons Sports Bar", "city": "Halifax", "state": "MA", "address": "327 Plymouth St (Route 106)", "lat": null, "lng": null, "facebookurl": null, "gig_count": 35, "band_count": 14, "first_gig": "2012-06-02", "last_gig": "2014-06-28"}, {"venueid": 8329, "venuename": "Center for The Arts at The Armory", "city": "Somerville", "state": "MA", "address": "191 Highland Avenue", "lat": null, "lng": null, "facebookurl": null, "gig_count": 34, "band_count": 30, "first_gig": "2017-01-08", "last_gig": "2019-07-13"}, {"venueid": 9351, "venuename": "The Fan Club", "city": "East Wareham", "state": "MA", "address": "2859 Cranberry Hwy", "lat": null, "lng": null, "facebookurl": null, "gig_count": 34, "band_count": 1, "first_gig": "2012-01-05", "last_gig": "2015-06-27"}, {"venueid": 8892, "venuename": "BBC Franklin", "city": "Franklin", "state": "MA", "address": "280 Franklin Village Drive", "lat": null, "lng": null, "facebookurl": null, "gig_count": 34, "band_count": 7, "first_gig": "2012-02-02", "last_gig": "2017-05-28"}, {"venueid": 10647, "venuename": "The Stomping Ground", "city": "Putnam", "state": "CT", "address": "132 Main Street", "lat": "41.915945099999", "lng": "-71.909679", "facebookurl": null, "gig_count": 34, "band_count": 4, "first_gig": "2017-01-06", "last_gig": "2019-09-13"}, {"venueid": 1610, "venuename": "The Derryfield Country Club", "city": "Manchester", "state": "NH", "address": null, "lat": "42.99563970", "lng": "-71.45478910", "facebookurl": null, "gig_count": 33, "band_count": 4, "first_gig": "2012-11-21", "last_gig": "2015-10-10"}, {"venueid": 9136, "venuename": "Stix and Stones", "city": "Abington", "state": "MA", "address": "800 Brockton Ave", "lat": "42.0931485", "lng": "-70.96867619999", "facebookurl": null, "gig_count": 33, "band_count": 14, "first_gig": "2012-06-02", "last_gig": "2016-11-26"}, {"venueid": 6912, "venuename": "The Banner Irish Pub", "city": "Rockland", "state": "MA", "address": "167 Union St", "lat": "42.1269418", "lng": "-70.91450120000", "facebookurl": "https://www.facebook.com/bannerpub/", "gig_count": 32, "band_count": 7, "first_gig": "2012-06-03", "last_gig": "2017-10-28"}, {"venueid": 3386, "venuename": "The Gallery", "city": "east bridgewater", "state": "MA", "address": "route 18", "lat": null, "lng": null, "facebookurl": null, "gig_count": 32, "band_count": 31, "first_gig": "2017-02-10", "last_gig": "2019-04-28"}, {"venueid": 8487, "venuename": "The Boston Tavern", "city": "West Bridgewater", "state": "MA", "address": "389 West Center street", "lat": null, "lng": null, "facebookurl": null, "gig_count": 32, "band_count": 3, "first_gig": "2012-06-09", "last_gig": "2017-12-23"}, {"venueid": 5789, "venuename": "The Hooley House", "city": "Boston", "state": "MA", "address": "25 Union St", "lat": null, "lng": null, "facebookurl": "https://www.facebook.com/HooleyHouse/", "gig_count": 31, "band_count": 25, "first_gig": "2016-12-03", "last_gig": "2017-06-01"}, {"venueid": 8826, "venuename": "Olde Hitching Post", "city": "Hanson", "state": "MA", "address": "48 Spring Street", "lat": null, "lng": null, "facebookurl": null, "gig_count": 30, "band_count": 3, "first_gig": "2012-06-08", "last_gig": "2019-12-13"}, {"venueid": 10642, "venuename": "Station Eight", "city": "Marshfield", "state": "MA", "address": "1899 Ocean Street", "lat": "42.0917453", "lng": "-70.7055871", "facebookurl": "https://www.facebook.com/StationEightRestaurant/", "gig_count": 30, "band_count": 10, "first_gig": "2016-10-05", "last_gig": "2018-06-16"}, {"venueid": 4993, "venuename": "PROVINCETOWN II", "city": "BOSTON", "state": "MA", "address": "BOSTON HARBOR", "lat": "42.35172720", "lng": "-71.04086239999", "facebookurl": null, "gig_count": 29, "band_count": 28, "first_gig": "2013-07-09", "last_gig": "2019-07-07"}, {"venueid": 10632, "venuename": "Tavern at the Post", "city": "Hanson", "state": "MA", "address": "48 Spring Street", "lat": "42.0751892", "lng": "-70.88001869999", "facebookurl": "https://www.facebook.com/TavernAtThePost/", "gig_count": 29, "band_count": 2, "first_gig": "2016-10-27", "last_gig": "2017-12-21"}, {"venueid": 10574, "venuename": "The Speedwell Tavern", "city": "Plymouth", "state": "MA", "address": "47 Main St", "lat": "41.9566912", "lng": "-70.664412", "facebookurl": "https://www.facebook.com/TheSpeedwellTavern/", "gig_count": 29, "band_count": 6, "first_gig": "2015-05-03", "last_gig": "2018-08-24"}, {"venueid": 9078, "venuename": "The Sandcastle Lounge", "city": "Plymouth", "state": "MA", "address": "150 Warren Ave", "lat": "41.95843670", "lng": "-70.66725760", "facebookurl": null, "gig_count": 28, "band_count": 16, "first_gig": "2016-10-28", "last_gig": "2017-04-22"}, {"venueid": 10691, "venuename": "Cary Memorial Hall", "city": "Lexington", "state": "MA", "address": "1605 Massachusetts Ave", "lat": "42.4469613", "lng": "-71.2239561", "facebookurl": "https://www.facebook.com/CaryMemorialHall/", "gig_count": 28, "band_count": 26, "first_gig": "2016-11-13", "last_gig": "2019-07-28"}, {"venueid": 4133, "venuename": "Plymouth Memorial Hall", "city": "Plymouth", "state": "MA", "address": null, "lat": "41.953991", "lng": "-70.658897", "facebookurl": null, "gig_count": 28, "band_count": 27, "first_gig": "2016-12-17", "last_gig": "2019-08-03"}, {"venueid": 9131, "venuename": "Outpost 186", "city": "Cambridge", "state": "MA", "address": "186 1/2 Hampshire St.", "lat": "42.37361580", "lng": "-71.10973349999", "facebookurl": null, "gig_count": 27, "band_count": 19, "first_gig": "2017-09-09", "last_gig": "2019-07-05"}, {"venueid": 9328, "venuename": "Finna's Tavern", "city": "Kingston", "state": "MA", "address": "6 Pembroke St", "lat": "41.9961798", "lng": "-70.74324179999", "facebookurl": null, "gig_count": 27, "band_count": 12, "first_gig": "2012-11-10", "last_gig": "2017-04-29"}, {"venueid": 6356, "venuename": "Abington Ale House", "city": "Abington", "state": "MA", "address": "1235 Bedford Street", "lat": "42.1382797", "lng": "-70.9502005", "facebookurl": "https://www.facebook.com/AbingtonAleHouse/", "gig_count": 27, "band_count": 10, "first_gig": "2012-04-27", "last_gig": "2017-05-05"}, {"venueid": 8243, "venuename": "Garcia Brogans", "city": "Lowell", "state": "MA", "address": "135 Middlesex St", "lat": null, "lng": null, "facebookurl": null, "gig_count": 26, "band_count": 2, "first_gig": "2014-02-21", "last_gig": "2015-12-26"}, {"venueid": 1881, "venuename": "Harvard Square", "city": "Cambridge", "state": "MA", "address": null, "lat": "42.37361580", "lng": "-71.10973349999", "facebookurl": null, "gig_count": 26, "band_count": 24, "first_gig": "2017-04-11", "last_gig": "2019-06-22"}, {"venueid": 4054, "venuename": "Jeanie Johnston Pubaul", "city": "Jamaica Plain", "state": "MA", "address": "144 South Street", "lat": null, "lng": null, "facebookurl": null, "gig_count": 26, "band_count": 21, "first_gig": "2018-05-04", "last_gig": "2019-03-29"}, {"venueid": 9202, "venuename": "TK O'Malley's Sports Cafe", "city": "Scituate", "state": "MA", "address": "194 Front St", "lat": "42.1969637", "lng": "-70.72479389999", "facebookurl": "https://www.facebook.com/TKO-Malleys-Sports-Cafe-129034763831525/", "gig_count": 25, "band_count": 2, "first_gig": "2012-06-09", "last_gig": "2016-11-23"}, {"venueid": 10484, "venuename": "Brockton VFW", "city": "Brockton", "state": "MA", "address": "283 N Quincy St. Brockton", "lat": null, "lng": null, "facebookurl": null, "gig_count": 25, "band_count": 24, "first_gig": "2014-02-15", "last_gig": "2019-06-29"}, {"venueid": 8995, "venuename": "Tommy Doyle's", "city": "Brockton", "state": "MA", "address": "327 N Pearl St", "lat": "42.1004717", "lng": "-71.0665501", "facebookurl": null, "gig_count": 24, "band_count": 6, "first_gig": "2012-06-29", "last_gig": "2017-01-05"}, {"venueid": 236, "venuename": "WERS Radio", "city": "Boston", "state": "MA", "address": "100 Beacon St", "lat": "42.35172720", "lng": "-71.04086239999", "facebookurl": null, "gig_count": 24, "band_count": 20, "first_gig": "2017-02-16", "last_gig": "2018-11-03"}, {"venueid": 8620, "venuename": "BBC Westford", "city": "Westford", "state": "MA", "address": "149 Littleton Road", "lat": "42.582661", "lng": "-71.437088", "facebookurl": null, "gig_count": 24, "band_count": 6, "first_gig": "2012-06-02", "last_gig": "2016-10-29"}, {"venueid": 10670, "venuename": "Rivershed", "city": "Scituate", "state": "MA", "address": "17 New Driftway", "lat": "42.195929", "lng": "-70.7258633", "facebookurl": "https://www.facebook.com/rivershed/", "gig_count": 23, "band_count": 8, "first_gig": "2016-10-02", "last_gig": "2018-02-25"}, {"venueid": 128, "venuename": "Strange Brew", "city": "Manchester", "state": "NH", "address": "88 Market St", "lat": "42.9906126", "lng": "-71.46526899999", "facebookurl": null, "gig_count": 23, "band_count": 1, "first_gig": "2013-04-16", "last_gig": "2020-12-11"}, {"venueid": 7298, "venuename": "Middlesex Lounge Restaurant", "city": "Cambridge", "state": "MA", "address": "315 Massachusetts Ave", "lat": "42.3624", "lng": "-71.0984", "facebookurl": null, "gig_count": 22, "band_count": 21, "first_gig": "2017-04-20", "last_gig": "2019-05-26"}, {"venueid": 8937, "venuename": "T-Bones", "city": "Plymouth", "state": "MA", "address": "22 Main Street", "lat": "41.95843670", "lng": "-70.66725760", "facebookurl": "https://www.facebook.com/tbonesroadhouse/", "gig_count": 22, "band_count": 13, "first_gig": "2013-02-08", "last_gig": "2019-01-05"}, {"venueid": 9364, "venuename": "Orta Ristorante and Bar", "city": "Pembroke", "state": "MA", "address": "75 Washington Street", "lat": null, "lng": null, "facebookurl": null, "gig_count": 22, "band_count": 3, "first_gig": "2012-01-19", "last_gig": "2013-09-06"}, {"venueid": 10761, "venuename": "Arts at the Armory Cafe", "city": "Somerville", "state": "MA", "address": "191 Highland Ave", "lat": "42.389688199999", "lng": "-71.1059923", "facebookurl": null, "gig_count": 22, "band_count": 22, "first_gig": "2016-12-11", "last_gig": "2019-07-06"}, {"venueid": 8249, "venuename": "The Stadium Sports Bar and Grill", "city": "Quincy", "state": "MA", "address": "1495 Hancock St.", "lat": "42.251368199999", "lng": "-70.99628749999", "facebookurl": null, "gig_count": 21, "band_count": 3, "first_gig": "2012-11-03", "last_gig": "2014-07-19"}, {"venueid": 6136, "venuename": "Rock On! Groove Cruise", "city": "Boston", "state": "MA", "address": "Rowes Wharf (behind Boston Harbor Hotel)", "lat": "42.35172720", "lng": "-71.04086239999", "facebookurl": null, "gig_count": 21, "band_count": 18, "first_gig": "2017-06-23", "last_gig": "2019-06-30"}, {"venueid": 10822, "venuename": "The Trackside, Bridgewater, Mass", "city": "Bridgewater", "state": "MA", "address": " ", "lat": "41.9903519", "lng": "-70.97505409999", "facebookurl": null, "gig_count": 21, "band_count": 18, "first_gig": "2017-02-03", "last_gig": "2017-05-20"}, {"venueid": 1832, "venuename": "The Walnut Street Cafe", "city": "Lynn", "state": "MA", "address": "Walnut Street", "lat": null, "lng": null, "facebookurl": null, "gig_count": 21, "band_count": 15, "first_gig": "2016-12-10", "last_gig": "2019-07-13"}, {"venueid": 3415, "venuename": "Regent Theatre", "city": "Arlington", "state": "MA", "address": "7 Medford Street", "lat": null, "lng": null, "facebookurl": null, "gig_count": 21, "band_count": 18, "first_gig": "2016-12-11", "last_gig": "2019-04-13"}, {"venueid": 10741, "venuename": "Greek American Social Construction Club", "city": "Somerville", "state": "MA", "address": " ", "lat": "42.3875968", "lng": "-71.0994968", "facebookurl": null, "gig_count": 20, "band_count": 19, "first_gig": "2016-12-02", "last_gig": "2019-04-07"}, {"venueid": 8644, "venuename": "The Last Shot", "city": "Stoughton", "state": "MA", "address": "559 Washington St", "lat": "42.1307957", "lng": "-71.1020261", "facebookurl": null, "gig_count": 20, "band_count": 13, "first_gig": "2012-06-01", "last_gig": "2018-03-17"}, {"venueid": 1929, "venuename": "Emma's Pub", "city": "Bridgewater", "state": "MA", "address": "Route 104", "lat": null, "lng": null, "facebookurl": null, "gig_count": 20, "band_count": 1, "first_gig": "2016-12-17", "last_gig": "2017-12-28"}, {"venueid": 10821, "venuename": "The Cottage Bar", "city": "Weymouth", "state": "MA", "address": "26 Union Street", "lat": null, "lng": null, "facebookurl": null, "gig_count": 20, "band_count": 11, "first_gig": "2016-11-11", "last_gig": "2017-12-09"}, {"venueid": 7291, "venuename": "Phoenix Landing Incaul", "city": "Cambridge", "state": "MA", "address": "512 Massachusetts Ave", "lat": "42.3641", "lng": "-71.1018", "facebookurl": null, "gig_count": 20, "band_count": 17, "first_gig": "2016-11-03", "last_gig": "2019-07-28"}, {"venueid": 10608, "venuename": "Plainridge Park Casino", "city": "Plainville", "state": "MA", "address": "301 Washington Street", "lat": "42.0042655", "lng": "-71.3328331", "facebookurl": null, "gig_count": 19, "band_count": 5, "first_gig": "2016-07-01", "last_gig": "2018-02-17"}, {"venueid": 234, "venuename": "Green Briar", "city": "Boston", "state": "MA", "address": null, "lat": "42.3463503", "lng": "-71.1626756", "facebookurl": null, "gig_count": 19, "band_count": 3, "first_gig": "2012-09-28", "last_gig": "2016-10-24"}, {"venueid": 835, "venuename": "Boston Common", "city": "Boston", "state": "MA", "address": "ah boston common", "lat": null, "lng": null, "facebookurl": null, "gig_count": 19, "band_count": 18, "first_gig": "2017-07-16", "last_gig": "2019-06-07"}, {"venueid": 4540, "venuename": "City Hall", "city": "Boston", "state": "MA", "address": "Boston", "lat": "42.35172720", "lng": "-71.04086239999", "facebookurl": null, "gig_count": 19, "band_count": 15, "first_gig": "2017-05-28", "last_gig": "2019-07-27"}, {"venueid": 8532, "venuename": "CHOP SHOP PUB", "city": "Seabrook", "state": "NH", "address": "920 Lafayette Rd.", "lat": null, "lng": null, "facebookurl": null, "gig_count": 19, "band_count": 2, "first_gig": "2012-06-08", "last_gig": "2018-03-09"}, {"venueid": 9382, "venuename": "The Meadow Brook Restaurant and Function Facility", "city": "Hanson", "state": "MA", "address": "Route 27", "lat": null, "lng": null, "facebookurl": null, "gig_count": 19, "band_count": 2, "first_gig": "2013-03-29", "last_gig": "2015-06-12"}, {"venueid": 8395, "venuename": "Scoreboard Sports Barn", "city": "Woburn", "state": "MA", "address": "15 Middlesex Canal Park Dr", "lat": "42.4969501", "lng": "-71.1587148", "facebookurl": null, "gig_count": 18, "band_count": 8, "first_gig": "2012-08-04", "last_gig": "2018-12-14"}, {"venueid": 9394, "venuename": "The Quality Inn", "city": "Brockton", "state": "MA", "address": "Belmont Street", "lat": null, "lng": null, "facebookurl": null, "gig_count": 18, "band_count": 1, "first_gig": "2013-04-05", "last_gig": "2014-11-08"}, {"venueid": 10746, "venuename": "BIRN Alive!", "city": "Boston", "state": "MA", "address": " ", "lat": "42.3600825", "lng": "-71.0588801", "facebookurl": "https://www.facebook.com/thebirn/", "gig_count": 18, "band_count": 14, "first_gig": "2016-12-03", "last_gig": "2019-06-24"}, {"venueid": 9144, "venuename": "Petes Grille", "city": "Quincy", "state": "MA", "address": "540 South Street", "lat": null, "lng": null, "facebookurl": null, "gig_count": 18, "band_count": 12, "first_gig": "2013-08-03", "last_gig": "2019-06-08"}, {"venueid": 5309, "venuename": "Dick's Last Resort", "city": "Boston", "state": "MA", "address": "Faneuil Hall", "lat": "42.35172720", "lng": "-71.04086239999", "facebookurl": null, "gig_count": 18, "band_count": 2, "first_gig": "2013-06-08", "last_gig": "2014-06-07"}, {"venueid": 10735, "venuename": "House of Brews", "city": "Stoughton", "state": "MA", "address": "28 Porter St", "lat": "42.125168", "lng": "-71.1033549", "facebookurl": null, "gig_count": 18, "band_count": 13, "first_gig": "2017-01-06", "last_gig": "2019-07-12"}, {"venueid": 7181, "venuename": "Paddy OS", "city": "Boston", "state": "MA", "address": "33 Union St", "lat": "42.3611", "lng": "-71.0568", "facebookurl": null, "gig_count": 18, "band_count": 3, "first_gig": "2013-05-31", "last_gig": "2017-02-25"}, {"venueid": 10695, "venuename": "Shubert Theatre, Boch Center", "city": "Boston", "state": "MA", "address": "265 Tremont St", "lat": "42.3503978", "lng": "-71.0653975", "facebookurl": null, "gig_count": 18, "band_count": 18, "first_gig": "2016-11-17", "last_gig": "2019-04-26"}, {"venueid": 9330, "venuename": "Piper's Restaurant & Bar", "city": "Wareham", "state": "MA", "address": "207 Main St", "lat": null, "lng": null, "facebookurl": null, "gig_count": 18, "band_count": 1, "first_gig": "2012-01-18", "last_gig": "2014-03-15"}, {"venueid": 1225, "venuename": "The Cliffhanger", "city": "Weymouth", "state": "MA", "address": null, "lat": "42.21807240", "lng": "-70.94103559999", "facebookurl": null, "gig_count": 17, "band_count": 2, "first_gig": "2012-11-20", "last_gig": "2014-11-29"}, {"venueid": 10571, "venuename": "Garcia Brogans", "city": "Waltham", "state": "MA", "address": null, "lat": null, "lng": null, "facebookurl": null, "gig_count": 17, "band_count": 4, "first_gig": "2015-05-29", "last_gig": "2018-03-24"}, {"venueid": 1821, "venuename": "Boston Public Libraryn", "city": "Boston", "state": "MA", "address": "700 Boylston Street", "lat": null, "lng": null, "facebookurl": null, "gig_count": 17, "band_count": 13, "first_gig": "2017-04-01", "last_gig": "2019-06-08"}, {"venueid": 4701, "venuename": "The Junction Bar", "city": "Boston", "state": "MA", "address": "110 Dorchester St", "lat": "42.335100999999", "lng": "-71.0459875", "facebookurl": null, "gig_count": 17, "band_count": 6, "first_gig": "2013-01-24", "last_gig": "2017-05-06"}, {"venueid": 10846, "venuename": "The FULL SAIL ", "city": "Plymouth", "state": "MA", "address": "47 Court St", "lat": "41.958246", "lng": "-70.667187", "facebookurl": null, "gig_count": 17, "band_count": 8, "first_gig": "2013-01-18", "last_gig": "2017-09-09"}, {"venueid": 7508, "venuename": "Costello's Tavern", "city": "Jamaica Plain", "state": "MA", "address": "723 Centre St", "lat": "42.3112", "lng": "-71.1146", "facebookurl": null, "gig_count": 17, "band_count": 8, "first_gig": "2012-06-09", "last_gig": "2014-07-10"}, {"venueid": 10548, "venuename": "Mixx 360 Nightlife", "city": "Malden", "state": "MA", "address": "665 Broadway Malden Ma. 02148", "lat": null, "lng": null, "facebookurl": null, "gig_count": 17, "band_count": 16, "first_gig": "2015-01-30", "last_gig": "2019-06-15"}, {"venueid": 10623, "venuename": "BBC Danvers", "city": "Danvers", "state": "MA", "address": "29 Andover Street", "lat": "42.5750009", "lng": "-70.93212199999", "facebookurl": "https://www.facebook.com/BritishBeerCompanyDanvers/", "gig_count": 17, "band_count": 4, "first_gig": "2016-10-27", "last_gig": "2017-05-26"}, {"venueid": 10725, "venuename": "Cary Hall", "city": "Lexington", "state": "MA", "address": "1605 Massachusetts Ave", "lat": "42.4469613", "lng": "-71.2239561", "facebookurl": null, "gig_count": 17, "band_count": 15, "first_gig": "2016-11-27", "last_gig": "2019-03-14"}, {"venueid": 6955, "venuename": "Lansdowne Pub", "city": "Boston", "state": "MA", "address": "9 Lansdowne Street", "lat": "42.35172720", "lng": "-71.04086239999", "facebookurl": "https://www.facebook.com/LansdownePub/", "gig_count": 16, "band_count": 8, "first_gig": "2012-06-02", "last_gig": "2017-10-21"}, {"venueid": 4820, "venuename": "Max's Blues Cafe", "city": "Brockton", "state": "MA", "address": "Montello St.", "lat": null, "lng": null, "facebookurl": null, "gig_count": 16, "band_count": 16, "first_gig": "2013-05-17", "last_gig": "2018-03-24"}, {"venueid": 10774, "venuename": "Whisky Saigon", "city": "Boston", "state": "MA", "address": "116 Boylston St", "lat": "42.3524227", "lng": "-71.0656669", "facebookurl": null, "gig_count": 16, "band_count": 10, "first_gig": "2016-12-08", "last_gig": "2018-11-04"}, {"venueid": 166, "venuename": "Whippersnapper's", "city": "Londonderry", "state": "NH", "address": "44 Nashua Rd.", "lat": null, "lng": null, "facebookurl": null, "gig_count": 16, "band_count": 2, "first_gig": "2013-10-05", "last_gig": "2015-09-19"}, {"venueid": 9334, "venuename": "Meadow Brook Restaurant", "city": "Hanson", "state": "MA", "address": "1486 Main Stree", "lat": null, "lng": null, "facebookurl": null, "gig_count": 16, "band_count": 2, "first_gig": "2012-11-21", "last_gig": "2013-10-25"}, {"venueid": 10447, "venuename": "Boston Tavern", "city": "Middleborough", "state": "MA", "address": "58 E Grove St", "lat": "41.8827043", "lng": "-70.9068657", "facebookurl": "https://www.facebook.com/Boston.Tavern.Middleboro/", "gig_count": 16, "band_count": 9, "first_gig": "2013-10-18", "last_gig": "2017-04-22"}, {"venueid": 4379, "venuename": "Chatham Bars Inn", "city": "Chatham", "state": "MA", "address": null, "lat": null, "lng": null, "facebookurl": null, "gig_count": 16, "band_count": 1, "first_gig": "2017-06-16", "last_gig": "2017-09-01"}, {"venueid": 8260, "venuename": "The Riviera Cafe", "city": "Bridgewater", "state": "MA", "address": "288 Broad St", "lat": "41.9977215", "lng": "-70.97234420000", "facebookurl": null, "gig_count": 16, "band_count": 6, "first_gig": "2012-06-08", "last_gig": "2017-01-28"}, {"venueid": 9366, "venuename": "Murphy's Tap Room", "city": "Manchester", "state": "NH", "address": "494 Elm Street", "lat": null, "lng": null, "facebookurl": null, "gig_count": 16, "band_count": 3, "first_gig": "2013-03-01", "last_gig": "2015-08-15"}, {"venueid": 10664, "venuename": "Beehive", "city": "Boston", "state": "MA", "address": "541 Tremont St", "lat": "42.344691", "lng": "-71.0714069", "facebookurl": "https://www.facebook.com/beehiveboston/", "gig_count": 16, "band_count": 2, "first_gig": "2016-10-30", "last_gig": "2018-03-23"}, {"venueid": 10899, "venuename": "Braintree Fireworks", "city": "Braintree", "state": "MA", "address": " ", "lat": "42.2079017", "lng": "-71.0040013", "facebookurl": null, "gig_count": 15, "band_count": 13, "first_gig": "2017-07-01", "last_gig": "2019-07-20"}, {"venueid": 10507, "venuename": "BOLTON STREET TAVERN", "city": "Marlboro", "state": "MA", "address": "587 Bolton St", "lat": "42.365196999999", "lng": "-71.5564", "facebookurl": null, "gig_count": 15, "band_count": 5, "first_gig": "2014-07-26", "last_gig": "2018-12-28"}, {"venueid": 9310, "venuename": "Boston Harbor Hotel", "city": "Boston", "state": "MA", "address": "70 Rowes Wharf", "lat": "42.3562236", "lng": "-71.0502554", "facebookurl": "https://www.facebook.com/BostonHarborHotel/", "gig_count": 15, "band_count": 13, "first_gig": "2012-07-30", "last_gig": "2019-02-23"}, {"venueid": 3340, "venuename": "Stoneforge Tavern", "city": "Raynham", "state": "MA", "address": null, "lat": "41.947121", "lng": "-71.074028", "facebookurl": null, "gig_count": 15, "band_count": 4, "first_gig": "2012-06-01", "last_gig": "2014-08-02"}, {"venueid": 352, "venuename": "Faneuil Hall", "city": "Boston", "state": "MA", "address": "1 Faneuil Hall Square", "lat": "42.35172720", "lng": "-71.04086239999", "facebookurl": null, "gig_count": 15, "band_count": 8, "first_gig": "2017-04-22", "last_gig": "2019-07-27"}, {"venueid": 6850, "venuename": "Bull McCabe'", "city": "Somerville", "state": "MA", "address": "366A Somerville Avenue", "lat": null, "lng": null, "facebookurl": null, "gig_count": 15, "band_count": 5, "first_gig": "2016-11-05", "last_gig": "2019-06-28"}, {"venueid": 10474, "venuename": "The Wild Rover Tavern", "city": "Boston", "state": "MA", "address": null, "lat": null, "lng": null, "facebookurl": null, "gig_count": 14, "band_count": 1, "first_gig": "2014-01-29", "last_gig": "2014-04-30"}, {"venueid": 9331, "venuename": "I.C.C. Club", "city": "Beverly", "state": "MA", "address": "Rantool St", "lat": null, "lng": null, "facebookurl": null, "gig_count": 14, "band_count": 2, "first_gig": "2012-12-29", "last_gig": "2014-12-31"}, {"venueid": 4392, "venuename": "Mass. Bay Lines Harbor cruse", "city": "Boston", "state": "MA", "address": "Rowes Warf", "lat": "42.35172720", "lng": "-71.04086239999", "facebookurl": null, "gig_count": 14, "band_count": 13, "first_gig": "2017-05-20", "last_gig": "2018-08-19"}, {"venueid": 6717, "venuename": "The Jockey Club", "city": "Raynham", "state": "MA", "address": "115 New State Highway", "lat": null, "lng": null, "facebookurl": null, "gig_count": 14, "band_count": 6, "first_gig": "2012-06-02", "last_gig": "2019-03-23"}, {"venueid": 6604, "venuename": "Gametime (Formerly The 123 Pub)", "city": "Rockland", "state": "MA", "address": "Rte 123", "lat": null, "lng": null, "facebookurl": null, "gig_count": 13, "band_count": 2, "first_gig": "2012-07-13", "last_gig": "2013-12-13"}, {"venueid": 10677, "venuename": "The Red Room at Cafe 939", "city": "Boston", "state": "MA", "address": "939 Boylston Street", "lat": "42.3600825", "lng": "-71.0588801", "facebookurl": "https://www.facebook.com/redroom.cafe939/", "gig_count": 13, "band_count": 13, "first_gig": "2016-11-01", "last_gig": "2016-12-10"}, {"venueid": 6349, "venuename": "Knuckleheads Bar and Grille", "city": "New Bedford", "state": "MA", "address": "85 Macarthur drive", "lat": null, "lng": null, "facebookurl": null, "gig_count": 13, "band_count": 4, "first_gig": "2012-07-27", "last_gig": "2017-11-17"}, {"venueid": 10814, "venuename": "Tavern on the Wharf", "city": "Plymouth", "state": "MA", "address": " ", "lat": "41.9618759", "lng": "-70.6673813", "facebookurl": null, "gig_count": 13, "band_count": 6, "first_gig": "2017-01-14", "last_gig": "2018-08-25"}, {"venueid": 2963, "venuename": "Colonial Inn", "city": "Concord", "state": "MA", "address": "48 Monument Square", "lat": null, "lng": null, "facebookurl": null, "gig_count": 13, "band_count": 1, "first_gig": "2013-07-05", "last_gig": "2017-02-17"}, {"venueid": 2104, "venuename": "Stoughton VFW", "city": "Stoughton", "state": "MA", "address": null, "lat": null, "lng": null, "facebookurl": null, "gig_count": 13, "band_count": 6, "first_gig": "2017-03-11", "last_gig": "2019-01-25"}, {"venueid": 6698, "venuename": "The Halfway Cafe", "city": "Holbrook", "state": "MA", "address": "200 South Franklin Street", "lat": null, "lng": null, "facebookurl": null, "gig_count": 13, "band_count": 5, "first_gig": "2012-06-09", "last_gig": "2013-06-01"}, {"venueid": 8942, "venuename": "The Dogwatch Pub", "city": "Scituate", "state": "MA", "address": "9 Beaver Damm Rd", "lat": null, "lng": null, "facebookurl": null, "gig_count": 13, "band_count": 3, "first_gig": "2012-06-16", "last_gig": "2013-12-07"}, {"venueid": 10804, "venuename": "Porter Bellys Pub ", "city": "Boston", "state": "MA", "address": " ", "lat": "42.3463503", "lng": "-71.1626756", "facebookurl": null, "gig_count": 12, "band_count": 2, "first_gig": "2016-12-22", "last_gig": "2018-04-07"}, {"venueid": 852, "venuename": "Franco American Club n", "city": "Beverly", "state": "MA", "address": "44 Park St.", "lat": null, "lng": null, "facebookurl": null, "gig_count": 12, "band_count": 1, "first_gig": "2013-09-07", "last_gig": "2013-12-07"}, {"venueid": 9085, "venuename": "ANGRY HAMS GARAGE", "city": "Framingham", "state": "MA", "address": "2 Beacon St", "lat": "42.2989928", "lng": "-71.40918719999", "facebookurl": null, "gig_count": 12, "band_count": 4, "first_gig": "2012-06-16", "last_gig": "2017-05-27"}, {"venueid": 10631, "venuename": "Surf Lounge", "city": "Hull", "state": "MA", "address": "45 Hull Shore Drive", "lat": "42.3020647", "lng": "-70.9078346", "facebookurl": null, "gig_count": 12, "band_count": 2, "first_gig": "2016-11-23", "last_gig": "2017-11-04"}, {"venueid": 10704, "venuename": "Villa Victoria Center for the Arts", "city": "Boston", "state": "MA", "address": "85 W Newton St", "lat": "42.3409714", "lng": "-71.07580969999", "facebookurl": null, "gig_count": 12, "band_count": 12, "first_gig": "2016-11-19", "last_gig": "2019-03-29"}, {"venueid": 10763, "venuename": "Golden Dragon", "city": "Weymouth", "state": "MA", "address": "35 Pleasant St", "lat": "42.1716215", "lng": "-70.9530417", "facebookurl": null, "gig_count": 12, "band_count": 3, "first_gig": "2016-12-10", "last_gig": "2018-03-10"}, {"venueid": 6132, "venuename": "ITALIAN COMMUNITY CENTER", "city": "Beverly", "state": "MA", "address": "Rantoul Street", "lat": null, "lng": null, "facebookurl": null, "gig_count": 11, "band_count": 7, "first_gig": "2013-02-02", "last_gig": "2019-04-07"}, {"venueid": 10459, "venuename": "The Full Sail", "city": "Plymouth", "state": "MA", "address": "47 Court St", "lat": "41.958246", "lng": "-70.667187", "facebookurl": null, "gig_count": 11, "band_count": 4, "first_gig": "2013-11-10", "last_gig": "2017-03-10"}, {"venueid": 10847, "venuename": "Pinz, Kingston, Ma", "city": "Kingston", "state": "MA", "address": "101 Kingston Collection Way", "lat": "41.9705054", "lng": "-70.71616419999", "facebookurl": null, "gig_count": 11, "band_count": 9, "first_gig": "2017-02-11", "last_gig": "2018-03-17"}, {"venueid": 10831, "venuename": "Stix & Stones Abington", "city": "Abington", "state": "MA", "address": "800 Brockton Ave", "lat": "42.09312", "lng": "-70.9687299", "facebookurl": null, "gig_count": 11, "band_count": 5, "first_gig": "2017-01-28", "last_gig": "2018-04-14"}, {"venueid": 181, "venuename": "The Garden", "city": "Newport", "state": "RI", "address": null, "lat": "41.492161", "lng": "-71.311333", "facebookurl": null, "gig_count": 11, "band_count": 8, "first_gig": "2018-10-19", "last_gig": "2019-04-20"}, {"venueid": 10810, "venuename": "125 Main St", "city": "Hull", "state": "MA", "address": "125 Main Street", "lat": null, "lng": null, "facebookurl": "https://www.facebook.com/groups/53070492724/", "gig_count": 11, "band_count": 5, "first_gig": "2014-03-28", "last_gig": "2017-03-10"}, {"venueid": 703, "venuename": "WMFO 91.5 FM", "city": "Medford", "state": "MA", "address": null, "lat": null, "lng": null, "facebookurl": null, "gig_count": 11, "band_count": 9, "first_gig": "2017-02-01", "last_gig": "2019-05-29"}, {"venueid": 2139, "venuename": "Somerville City Clubal", "city": "Somerville", "state": "MA", "address": null, "lat": "42.386681", "lng": "-71.098259", "facebookurl": null, "gig_count": 11, "band_count": 2, "first_gig": "2017-05-14", "last_gig": "2019-06-24"}, {"venueid": 2142, "venuename": "The Lynn YMCA", "city": "Lynn", "state": "MA", "address": "Neptune Blvd.", "lat": null, "lng": null, "facebookurl": null, "gig_count": 11, "band_count": 10, "first_gig": "2017-04-08", "last_gig": "2019-06-28"}, {"venueid": 2537, "venuename": "The Brockton Fair Grounds", "city": "Brockton", "state": "MA", "address": null, "lat": "42.08318", "lng": "-71.017242", "facebookurl": null, "gig_count": 11, "band_count": 8, "first_gig": "2012-07-02", "last_gig": "2017-08-05"}, {"venueid": 10628, "venuename": "Lobster Trap Restaurant", "city": "Bourne", "state": "MA", "address": "290 Shore Road", "lat": "41.741277300000", "lng": "-70.5989325", "facebookurl": "https://www.facebook.com/The-Lobster-Trap-233617366339/", "gig_count": 11, "band_count": 1, "first_gig": "2016-11-13", "last_gig": "2017-12-03"}, {"venueid": 9224, "venuename": "Pier 37", "city": "New Bedford", "state": "MA", "address": "37 Union Street", "lat": null, "lng": null, "facebookurl": null, "gig_count": 11, "band_count": 2, "first_gig": "2012-06-09", "last_gig": "2013-05-11"}, {"venueid": 10873, "venuename": "Funky Murphy's Bar and Grill", "city": "Marlboro", "state": "MA", "address": " ", "lat": "42.3459271", "lng": "-71.5522874", "facebookurl": null, "gig_count": 11, "band_count": 1, "first_gig": "2017-06-09", "last_gig": "2019-02-22"}, {"venueid": 9292, "venuename": "Alba Restaurent", "city": "Quincy", "state": "MA", "address": "1486 Hancock Street", "lat": "42.251368199999", "lng": "-70.99628749999", "facebookurl": null, "gig_count": 11, "band_count": 3, "first_gig": "2013-11-08", "last_gig": "2014-06-28"}, {"venueid": 9319, "venuename": "ST ANTHONY CLUB OF N. WOBURN", "city": "WOBURN", "state": "MA", "address": "1020R MAIN ST", "lat": null, "lng": null, "facebookurl": null, "gig_count": 11, "band_count": 3, "first_gig": "2012-07-28", "last_gig": "2014-10-18"}, {"venueid": 9141, "venuename": "Pete's Place Bar & Grille", "city": "Quincy", "state": "MA", "address": "840 South St", "lat": "42.2459658", "lng": "-70.9748384", "facebookurl": "https://www.facebook.com/Petes-Bar-and-Grille-227374280608116/", "gig_count": 10, "band_count": 4, "first_gig": "2012-06-14", "last_gig": "2017-07-21"}, {"venueid": 9267, "venuename": "BBC Manchester", "city": "Manchester", "state": "NH", "address": "1071 South Willow Street", "lat": "42.99563970", "lng": "-71.45478910", "facebookurl": null, "gig_count": 10, "band_count": 4, "first_gig": "2012-07-14", "last_gig": "2016-10-28"}, {"venueid": 10586, "venuename": "Dolly Shakers", "city": "Nashua", "state": "NH", "address": null, "lat": null, "lng": null, "facebookurl": null, "gig_count": 10, "band_count": 4, "first_gig": "2015-09-18", "last_gig": "2018-03-17"}, {"venueid": 939, "venuename": "First Church in Cambridge, Congregational", "city": "Cambridge", "state": "MA", "address": "11 Garden St. (Harvard Sq.)", "lat": "42.37361580", "lng": "-71.10973349999", "facebookurl": null, "gig_count": 10, "band_count": 10, "first_gig": "2017-05-11", "last_gig": "2019-05-29"}, {"venueid": 1102, "venuename": "Kresge Auditorium", "city": "Cambridge", "state": "MA", "address": "MIT, Amherst Ave.", "lat": "42.37361580", "lng": "-71.10973349999", "facebookurl": null, "gig_count": 10, "band_count": 6, "first_gig": "2016-11-18", "last_gig": "2018-12-01"}, {"venueid": 6474, "venuename": "Casino Wharf FX", "city": "Falmouth", "state": "MA", "address": null, "lat": "41.553348", "lng": "-70.618111", "facebookurl": null, "gig_count": 10, "band_count": 2, "first_gig": "2013-06-16", "last_gig": "2017-09-23"}, {"venueid": 10450, "venuename": "Rye Tavern", "city": "Plymouth", "state": "MA", "address": " ", "lat": "41.8804637", "lng": "-70.645473", "facebookurl": null, "gig_count": 10, "band_count": 3, "first_gig": "2013-10-20", "last_gig": "2017-10-07"}, {"venueid": 3208, "venuename": "BBC Hyannis", "city": "Barnstable", "state": "MA", "address": "412 Main Street", "lat": "41.654789", "lng": "-70.279633", "facebookurl": null, "gig_count": 10, "band_count": 3, "first_gig": "2013-06-22", "last_gig": "2016-11-23"}, {"venueid": 10827, "venuename": "The Rising Bar", "city": "Cambridge", "state": "MA", "address": "1172 Cambridge St", "lat": "42.37312", "lng": "-71.09693", "facebookurl": null, "gig_count": 10, "band_count": 7, "first_gig": "2017-03-03", "last_gig": "2018-06-13"}, {"venueid": 10833, "venuename": "Jo's Nautical Bar", "city": "Hull", "state": "MA", "address": "125 Main Street", "lat": "42.3020647", "lng": "-70.9078346", "facebookurl": "https://www.facebook.com/pages/Jos-Nautical-Bar/128209213893568", "gig_count": 10, "band_count": 3, "first_gig": "2017-04-28", "last_gig": "2018-02-10"}, {"venueid": 10544, "venuename": "Slapshotz Sports Pub", "city": "Raynham", "state": "MA", "address": "524 Broadway", "lat": "41.94326", "lng": "-71.077079", "facebookurl": null, "gig_count": 10, "band_count": 4, "first_gig": "2015-01-17", "last_gig": "2017-06-17"}, {"venueid": 9355, "venuename": "Ice House Bar & Grilll", "city": "Fairhaven", "state": "MA", "address": "136 Huttleston Ave.", "lat": null, "lng": null, "facebookurl": null, "gig_count": 10, "band_count": 1, "first_gig": "2013-05-25", "last_gig": "2015-03-28"}, {"venueid": 5291, "venuename": "The Courtyard Restaurant and Pub", "city": "Cataumet,", "state": "MA", "address": "1337 County Rd", "lat": null, "lng": null, "facebookurl": null, "gig_count": 10, "band_count": 2, "first_gig": "2012-06-01", "last_gig": "2013-12-14"}, {"venueid": 5482, "venuename": "BBC Falmouth", "city": "Falmouth", "state": "MA", "address": "263 Grand Avenue", "lat": null, "lng": null, "facebookurl": null, "gig_count": 10, "band_count": 3, "first_gig": "2012-08-25", "last_gig": "2014-08-23"}, {"venueid": 10727, "venuename": "Burlington Marriott", "city": "Burlington", "state": "MA", "address": " ", "lat": "42.5047161", "lng": "-71.1956205", "facebookurl": null, "gig_count": 10, "band_count": 1, "first_gig": "2016-11-29", "last_gig": "2017-05-30"}, {"venueid": 9113, "venuename": "The Sand Dollar Raw Bar & Grill", "city": "Dennisport", "state": "MA", "address": "244 Lower County Rd", "lat": null, "lng": null, "facebookurl": null, "gig_count": 10, "band_count": 1, "first_gig": "2012-06-25", "last_gig": "2012-08-27"}, {"venueid": 10748, "venuename": "Arlington Street Church", "city": "Boston", "state": "MA", "address": "351 Boylston St", "lat": "42.3520175", "lng": "-71.0712114", "facebookurl": null, "gig_count": 10, "band_count": 9, "first_gig": "2016-12-03", "last_gig": "2018-12-01"}, {"venueid": 8732, "venuename": "Venus III", "city": "Marshfield", "state": "MA", "address": "262 Main St", "lat": "42.1023951", "lng": "-70.71907659999", "facebookurl": null, "gig_count": 10, "band_count": 3, "first_gig": "2013-01-19", "last_gig": "2013-10-26"}, {"venueid": 10689, "venuename": "Track Shack", "city": "Boston", "state": "MA", "address": " ", "lat": "42.3600825", "lng": "-71.0588801", "facebookurl": null, "gig_count": 10, "band_count": 10, "first_gig": "2016-11-12", "last_gig": "2017-08-19"}, {"venueid": 10687, "venuename": " Middle East - Zuzu", "city": "Cambridge", "state": "MA", "address": "474 Massachusetts Ave", "lat": "42.3637732", "lng": "-71.10144", "facebookurl": "https://www.facebook.com/zuzubar/", "gig_count": 10, "band_count": 10, "first_gig": "2016-11-10", "last_gig": "2017-01-16"}, {"venueid": 1969, "venuename": "Boston State House", "city": "Boston", "state": "MA", "address": "206 Washington Street", "lat": "42.35172720", "lng": "-71.04086239999", "facebookurl": null, "gig_count": 10, "band_count": 10, "first_gig": "2017-06-16", "last_gig": "2018-04-13"}, {"venueid": 9413, "venuename": "The Lanes Bowl ", "city": "Mashpee", "state": "MA", "address": null, "lat": null, "lng": null, "facebookurl": null, "gig_count": 10, "band_count": 2, "first_gig": "2013-05-10", "last_gig": "2017-07-22"}, {"venueid": 6944, "venuename": "The Tavern", "city": "Framingham", "state": "MA", "address": "102 Irving Street", "lat": null, "lng": null, "facebookurl": null, "gig_count": 10, "band_count": 2, "first_gig": "2013-11-08", "last_gig": "2016-02-06"}, {"venueid": 8634, "venuename": "Shooters", "city": "Middleboro", "state": "MA", "address": "360 Wareham Street Middleboro, MA 02346-3222", "lat": null, "lng": null, "facebookurl": null, "gig_count": 10, "band_count": 5, "first_gig": "2012-07-07", "last_gig": "2013-08-25"}, {"venueid": 10732, "venuename": "Lobster Pot", "city": "Bristol", "state": "RI", "address": "119 Hope St", "lat": "41.6612275", "lng": "-71.2708332", "facebookurl": null, "gig_count": 10, "band_count": 2, "first_gig": "2016-12-09", "last_gig": "2017-12-22"}, {"venueid": 8839, "venuename": "Doyles", "city": "Brockton", "state": "MA", "address": "rt27", "lat": null, "lng": null, "facebookurl": null, "gig_count": 10, "band_count": 2, "first_gig": "2012-10-19", "last_gig": "2013-06-28"}, {"venueid": 9232, "venuename": "Wakefield Elks", "city": "Wakefield", "state": "MA", "address": "Baystate Road", "lat": null, "lng": null, "facebookurl": null, "gig_count": 10, "band_count": 9, "first_gig": "2017-08-12", "last_gig": "2017-10-21"}, {"venueid": 9238, "venuename": "Randolph amvet", "city": "randolph", "state": "MA", "address": "1 amvets lane", "lat": null, "lng": null, "facebookurl": null, "gig_count": 10, "band_count": 6, "first_gig": "2012-06-06", "last_gig": "2019-05-25"}, {"venueid": 3287, "venuename": "The South Shore Country Clubl", "city": "Hingham", "state": "MA", "address": null, "lat": null, "lng": null, "facebookurl": null, "gig_count": 9, "band_count": 9, "first_gig": "2017-07-05", "last_gig": "2018-10-07"}, {"venueid": 2042, "venuename": "Woburn CC", "city": "Woburn", "state": "MA", "address": null, "lat": null, "lng": null, "facebookurl": null, "gig_count": 9, "band_count": 9, "first_gig": "2017-02-01", "last_gig": "2019-07-27"}, {"venueid": 10668, "venuename": "KKatie's Burger Bar Marshfield", "city": "Marshfield", "state": "MA", "address": "1899 Ocean Street", "lat": "42.0917453", "lng": "-70.7055871", "facebookurl": null, "gig_count": 9, "band_count": 6, "first_gig": "2014-07-17", "last_gig": "2018-03-17"}, {"venueid": 6738, "venuename": "The SandBar & Grille (Ba Ha Brothers)", "city": "Taunton", "state": "MA", "address": null, "lat": "41.900101", "lng": "-71.0897674", "facebookurl": null, "gig_count": 9, "band_count": 1, "first_gig": "2013-01-25", "last_gig": "2016-11-19"}, {"venueid": 10665, "venuename": "Chianti Jazz Lounge", "city": "Beverly", "state": "MA", "address": "285 Cabot St", "lat": "42.55131", "lng": "-70.8782669", "facebookurl": null, "gig_count": 9, "band_count": 3, "first_gig": "2016-11-02", "last_gig": "2017-11-24"}, {"venueid": 8756, "venuename": "The Farm Bar and Grilleaul", "city": "Essex", "state": "MA", "address": "233 Western Avenue", "lat": null, "lng": null, "facebookurl": null, "gig_count": 9, "band_count": 9, "first_gig": "2018-04-21", "last_gig": "2018-11-16"}, {"venueid": 9353, "venuename": "Anna's Harborside Grille", "city": "Plymouth", "state": "MA", "address": "145 Water St", "lat": "41.95843670", "lng": "-70.66725760", "facebookurl": null, "gig_count": 9, "band_count": 1, "first_gig": "2017-07-01", "last_gig": "2018-09-01"}, {"venueid": 1024, "venuename": "Les Zygomates", "city": "Boston", "state": "MA", "address": "129 South St", "lat": "42.35172720", "lng": "-71.04086239999", "facebookurl": null, "gig_count": 9, "band_count": 6, "first_gig": "2018-09-24", "last_gig": "2019-03-25"}, {"venueid": 9430, "venuename": "Sea Dog Brew Pub", "city": "2 A St. Hull", "state": "MA", "address": null, "lat": null, "lng": null, "facebookurl": null, "gig_count": 9, "band_count": 1, "first_gig": "2013-07-13", "last_gig": "2014-07-25"}, {"venueid": 10633, "venuename": "KKatie's Burger Bar Plymouth", "city": "Plymouth", "state": "MA", "address": "38 Main St Ext", "lat": "41.9548128", "lng": "-70.6624722", "facebookurl": "https://www.facebook.com/kkatiesburgerbar.plymouth/", "gig_count": 9, "band_count": 2, "first_gig": "2016-10-30", "last_gig": "2017-12-10"}, {"venueid": 3659, "venuename": "The Kinsale Irish Pub", "city": "Boston", "state": "MA", "address": "2 Center Plaza (Cambridge St,)", "lat": "42.35172720", "lng": "-71.04086239999", "facebookurl": null, "gig_count": 9, "band_count": 3, "first_gig": "2012-06-09", "last_gig": "2013-04-12"}, {"venueid": 4529, "venuename": "The Elks Lodge", "city": "Marshfield", "state": null, "address": null, "lat": null, "lng": null, "facebookurl": null, "gig_count": 9, "band_count": 9, "first_gig": "2018-06-13", "last_gig": "2019-04-13"}, {"venueid": 7093, "venuename": "Club Nicole", "city": "Boston", "state": "MA", "address": "40 Dalton St", "lat": "42.3461", "lng": "-71.0848", "facebookurl": null, "gig_count": 9, "band_count": 9, "first_gig": "2017-04-27", "last_gig": "2019-08-04"}, {"venueid": 10621, "venuename": "Galley", "city": "Scituate", "state": "MA", "address": "95 Front Street", "lat": "42.195929", "lng": "-70.7258633", "facebookurl": "https://www.facebook.com/GalleyScituate/", "gig_count": 9, "band_count": 4, "first_gig": "2016-10-23", "last_gig": "2017-08-06"}, {"venueid": 10605, "venuename": "Cisco Brewery", "city": "Nantucket", "state": "MA", "address": " ", "lat": "41.2834704", "lng": "-70.099451", "facebookurl": null, "gig_count": 9, "band_count": 3, "first_gig": "2016-06-14", "last_gig": "2017-09-02"}, {"venueid": 10963, "venuename": "The Bebop Boston", "city": "Boston", "state": "MA", "address": " ", "lat": "42.3600825", "lng": "-71.0588801", "facebookurl": null, "gig_count": 9, "band_count": 6, "first_gig": "2018-11-21", "last_gig": "2019-07-12"}, {"venueid": 9419, "venuename": "Carlton Lounge", "city": "1005 Belmont Street", "state": "BROCKTON", "address": null, "lat": null, "lng": null, "facebookurl": null, "gig_count": 9, "band_count": 1, "first_gig": "2013-09-28", "last_gig": "2014-11-29"}, {"venueid": 10889, "venuename": "Arrow", "city": "Pembroke", "state": "MA", "address": " ", "lat": "42.0714925", "lng": "-70.80919999999", "facebookurl": null, "gig_count": 9, "band_count": 2, "first_gig": "2017-09-07", "last_gig": "2018-02-15"}, {"venueid": 8958, "venuename": "The Fat Cactus", "city": "Lynnfield", "state": "MA", "address": "Route 1 North", "lat": null, "lng": null, "facebookurl": null, "gig_count": 9, "band_count": 2, "first_gig": "2012-06-17", "last_gig": "2012-08-19"}, {"venueid": 8888, "venuename": "Tj Callahan's Pub", "city": "Tewksbury", "state": "MA", "address": "1475 Main St", "lat": "42.5995268", "lng": "-71.2222888", "facebookurl": null, "gig_count": 9, "band_count": 6, "first_gig": "2012-06-09", "last_gig": "2017-09-29"}, {"venueid": 1879, "venuename": "Quincy Festival", "city": "Quincy", "state": "MA", "address": "Mainstreet", "lat": "42.25287720", "lng": "-71.00227049999", "facebookurl": null, "gig_count": 9, "band_count": 9, "first_gig": "2017-03-11", "last_gig": "2018-09-29"}, {"venueid": 10456, "venuename": "City Limits Saloon", "city": "Randolph", "state": "MA", "address": "326 N Main St", "lat": "42.167407999999", "lng": "-71.0449273", "facebookurl": null, "gig_count": 8, "band_count": 4, "first_gig": "2013-10-26", "last_gig": "2017-03-25"}, {"venueid": 6845, "venuename": "Club Bohemia (Cantab Lounge Downstairs)", "city": "Cambridge", "state": "MA", "address": "738 Massachusetts Ave.", "lat": "42.37361580", "lng": "-71.10973349999", "facebookurl": null, "gig_count": 8, "band_count": 8, "first_gig": "2016-11-03", "last_gig": "2018-08-04"}, {"venueid": 6829, "venuename": "The Black Raspberry Pub", "city": "Plymouth", "state": "MA", "address": "36 Cordage Park Cir", "lat": "41.979187", "lng": "-70.6879809", "facebookurl": "https://www.facebook.com/blackraspberrypubplymouth/", "gig_count": 8, "band_count": 3, "first_gig": "2012-07-21", "last_gig": "2016-12-16"}, {"venueid": 7468, "venuename": "Scarlet Oak Tavern", "city": "Hingham", "state": "MA", "address": "1217 Main St", "lat": "42.1769", "lng": "-70.8852", "facebookurl": null, "gig_count": 8, "band_count": 3, "first_gig": "2016-06-02", "last_gig": "2017-09-21"}, {"venueid": 6469, "venuename": "American Legion Post 14lo", "city": "Cumberland", "state": "RI", "address": "Broad St.", "lat": null, "lng": null, "facebookurl": null, "gig_count": 8, "band_count": 8, "first_gig": "2017-08-11", "last_gig": "2018-09-08"}, {"venueid": 6275, "venuename": "The Ashworth Hotel", "city": "Hampton", "state": "NH", "address": "295 ocean blvd", "lat": null, "lng": null, "facebookurl": null, "gig_count": 8, "band_count": 2, "first_gig": "2012-07-13", "last_gig": "2013-08-31"}, {"venueid": 8663, "venuename": "Marshfield Fair", "city": "Marshfield", "state": "MA", "address": null, "lat": "42.09174530", "lng": "-70.70558710", "facebookurl": null, "gig_count": 8, "band_count": 7, "first_gig": "2014-08-17", "last_gig": "2018-08-19"}, {"venueid": 8681, "venuename": "SIMPLE MAN SALOON", "city": "CLINTON", "state": "MA", "address": "119 HIGH ST", "lat": null, "lng": null, "facebookurl": null, "gig_count": 8, "band_count": 2, "first_gig": "2012-06-22", "last_gig": "2019-02-23"}, {"venueid": 8800, "venuename": "Bert's Landing", "city": "Plymouth", "state": "MA", "address": "140 Warren Avenue", "lat": "41.95843670", "lng": "-70.66725760", "facebookurl": null, "gig_count": 8, "band_count": 4, "first_gig": "2012-06-01", "last_gig": "2012-12-15"}, {"venueid": 8946, "venuename": "Wessagussett  Yacht Clubl", "city": "Weymouth", "state": "MA", "address": "212 Wessagussett rd.", "lat": "42.21807240", "lng": "-70.94103559999", "facebookurl": null, "gig_count": 8, "band_count": 2, "first_gig": "2012-06-29", "last_gig": "2017-10-14"}, {"venueid": 5764, "venuename": "Budweiser Brewery", "city": "Merrimack", "state": "NH", "address": "221 Daniel Webster Highway", "lat": null, "lng": null, "facebookurl": null, "gig_count": 8, "band_count": 5, "first_gig": "2017-10-20", "last_gig": "2018-03-17"}, {"venueid": 9090, "venuename": "Beachfire Restaurant and Bar", "city": "Hull", "state": "MA", "address": "42A State Park Rd.", "lat": null, "lng": null, "facebookurl": null, "gig_count": 8, "band_count": 1, "first_gig": "2012-06-10", "last_gig": "2012-07-22"}, {"venueid": 9139, "venuename": "Fat Cactus Randolph", "city": "Randolph", "state": "MA", "address": "1374 N Main St", "lat": null, "lng": null, "facebookurl": null, "gig_count": 8, "band_count": 2, "first_gig": "2012-07-01", "last_gig": "2012-09-07"}, {"venueid": 9282, "venuename": "(The New) Piper's", "city": "Wareham", "state": "MA", "address": "207 Main St", "lat": "41.7582892", "lng": "-70.71519339999", "facebookurl": null, "gig_count": 8, "band_count": 1, "first_gig": "2012-06-15", "last_gig": "2012-12-31"}, {"venueid": 3705, "venuename": "Rockafellas", "city": "Salem", "state": "MA", "address": "231 Essex Street", "lat": null, "lng": null, "facebookurl": null, "gig_count": 8, "band_count": 2, "first_gig": "2012-06-02", "last_gig": "2016-11-02"}, {"venueid": 10437, "venuename": "Sons of Italy", "city": "Hingham", "state": "MA", "address": null, "lat": null, "lng": null, "facebookurl": null, "gig_count": 8, "band_count": 7, "first_gig": "2013-09-28", "last_gig": "2018-08-07"}, {"venueid": 10455, "venuename": "Luciosos", "city": "Plymouth", "state": "MA", "address": "6 Spring Lane", "lat": null, "lng": null, "facebookurl": null, "gig_count": 8, "band_count": 3, "first_gig": "2013-11-28", "last_gig": "2016-04-15"}, {"venueid": 10478, "venuename": "The Assembly", "city": "Quincy", "state": "MA", "address": null, "lat": null, "lng": null, "facebookurl": null, "gig_count": 8, "band_count": 4, "first_gig": "2014-02-22", "last_gig": "2018-01-18"}, {"venueid": 10612, "venuename": "Harbor Fire", "city": "Marshfield", "state": "MA", "address": "239 Dyke Rd", "lat": "42.0848707", "lng": "-70.65112309999", "facebookurl": "https://www.facebook.com/HarborFireBarAndGrill/", "gig_count": 8, "band_count": 5, "first_gig": "2016-08-28", "last_gig": "2017-11-11"}, {"venueid": 1968, "venuename": "Weymouth Elks", "city": "Weymouth", "state": "MA", "address": "Route 53", "lat": "42.21807240", "lng": "-70.94103559999", "facebookurl": null, "gig_count": 8, "band_count": 4, "first_gig": "2012-06-03", "last_gig": "2017-10-21"}, {"venueid": 1916, "venuename": "Cambridge River Festivall", "city": "Cambridge", "state": "MA", "address": "Memorial Drive", "lat": "42.37361580", "lng": "-71.10973349999", "facebookurl": null, "gig_count": 8, "band_count": 7, "first_gig": "2017-06-03", "last_gig": "2019-06-01"}, {"venueid": 1428, "venuename": "The Theodore's", "city": "Springfield", "state": "MA", "address": null, "lat": null, "lng": null, "facebookurl": null, "gig_count": 8, "band_count": 3, "first_gig": "2017-03-31", "last_gig": "2018-03-09"}, {"venueid": 1338, "venuename": "Terrace Lounge", "city": "Boston", "state": "MA", "address": "Marriott/Copley Place", "lat": "42.35172720", "lng": "-71.04086239999", "facebookurl": null, "gig_count": 8, "band_count": 7, "first_gig": "2017-02-03", "last_gig": "2019-03-09"}, {"venueid": 10747, "venuename": "Larcom Theatre", "city": "Beverly", "state": "MA", "address": "13 Wallis St", "lat": "42.5481633", "lng": "-70.8796926", "facebookurl": null, "gig_count": 8, "band_count": 8, "first_gig": "2016-12-03", "last_gig": "2019-03-24"}, {"venueid": 10786, "venuename": "Fireside Grille", "city": "Middleborough", "state": "MA", "address": " ", "lat": null, "lng": null, "facebookurl": null, "gig_count": 8, "band_count": 3, "first_gig": "2016-12-09", "last_gig": "2017-05-11"}, {"venueid": 639, "venuename": "Green Street Grilleaul", "city": "Cambridge", "state": "MA", "address": null, "lat": "42.37361580", "lng": "-71.10973349999", "facebookurl": null, "gig_count": 8, "band_count": 8, "first_gig": "2017-04-07", "last_gig": "2018-11-09"}, {"venueid": 222, "venuename": "The Red Parrot", "city": "Hull", "state": "MA", "address": "1 Hull Shore Dr", "lat": "42.273486299999", "lng": "-70.8601578", "facebookurl": "https://www.facebook.com/The-Red-Parrot-113862911978203/", "gig_count": 8, "band_count": 7, "first_gig": "2012-07-28", "last_gig": "2017-08-12"}, {"venueid": 91, "venuename": "The Chicken Bone", "city": "Framingham", "state": "MA", "address": "358 Waverly St", "lat": null, "lng": null, "facebookurl": null, "gig_count": 8, "band_count": 6, "first_gig": "2012-06-29", "last_gig": "2014-03-22"}, {"venueid": 10857, "venuename": "Terry O'Reilly's ", "city": "Newton", "state": "MA", "address": "45 Union St", "lat": "42.3301252", "lng": "-71.1920556", "facebookurl": null, "gig_count": 8, "band_count": 3, "first_gig": "2017-03-11", "last_gig": "2018-01-20"}, {"venueid": 10858, "venuename": "The Victory Grille", "city": "Dedham", "state": "MA", "address": " ", "lat": "42.2436085", "lng": "-71.16765359999", "facebookurl": null, "gig_count": 8, "band_count": 3, "first_gig": "2017-03-18", "last_gig": "2018-04-13"}, {"venueid": 58, "venuename": "Boston University- Nickerson Field", "city": "Boston", "state": "MA", "address": "Comm Ave", "lat": null, "lng": null, "facebookurl": null, "gig_count": 8, "band_count": 6, "first_gig": "2017-11-30", "last_gig": "2018-10-05"}, {"venueid": 10867, "venuename": "Terra", "city": "Plymouth", "state": "MA", "address": " ", "lat": null, "lng": null, "facebookurl": null, "gig_count": 8, "band_count": 1, "first_gig": "2017-05-18", "last_gig": "2017-12-29"}, {"venueid": 10915, "venuename": "Jack O'Neill's", "city": "Boston", "state": "MA", "address": null, "lat": "42.2858602", "lng": "-71.1556946", "facebookurl": null, "gig_count": 8, "band_count": 8, "first_gig": "2017-10-27", "last_gig": "2017-11-09"}, {"venueid": 9082, "venuename": "Marshfield Tavern", "city": "Marshfield", "state": "MA", "address": "1 Proprietors Dr", "lat": "42.10366", "lng": "-70.74096999999", "facebookurl": "https://www.facebook.com/marshfieldtavern/", "gig_count": 7, "band_count": 4, "first_gig": "2014-11-28", "last_gig": "2019-07-16"}, {"venueid": 873, "venuename": "The Red Square", "city": "Burlington", "state": "VT", "address": "136 Church Street", "lat": null, "lng": null, "facebookurl": null, "gig_count": 7, "band_count": 3, "first_gig": "2016-12-29", "last_gig": "2017-09-30"}, {"venueid": 9272, "venuename": "BBC Bristol RI", "city": "Bristol", "state": "RI", "address": "29 State St", "lat": null, "lng": null, "facebookurl": null, "gig_count": 7, "band_count": 1, "first_gig": "2012-06-07", "last_gig": "2012-12-20"}, {"venueid": 9076, "venuename": "Four Square", "city": "Braintree", "state": "MA", "address": "16 Commercial Street", "lat": null, "lng": null, "facebookurl": null, "gig_count": 7, "band_count": 2, "first_gig": "2012-06-02", "last_gig": "2013-01-19"}, {"venueid": 42, "venuename": "Tufts University", "city": "Medford", "state": "MA", "address": "Medford Campus", "lat": null, "lng": null, "facebookurl": null, "gig_count": 7, "band_count": 7, "first_gig": "2018-04-19", "last_gig": "2019-04-27"}, {"venueid": 10547, "venuename": "Club Manchvegas", "city": "50 Old Granite St. Manchester", "state": "NH.", "address": null, "lat": null, "lng": null, "facebookurl": null, "gig_count": 7, "band_count": 2, "first_gig": "2015-01-17", "last_gig": "2018-11-02"}, {"venueid": 1957, "venuename": "The Wild Rover", "city": "Manchester", "state": "NH", "address": "21 Kosciuszko St.", "lat": "42.99563970", "lng": "-71.45478910", "facebookurl": null, "gig_count": 7, "band_count": 2, "first_gig": "2014-11-20", "last_gig": "2015-12-18"}, {"venueid": 10900, "venuename": "Roht Marine", "city": "Marshfield", "state": "MA", "address": "2205 Main St", "lat": "42.1604561", "lng": "-70.7430524", "facebookurl": null, "gig_count": 7, "band_count": 1, "first_gig": "2017-07-05", "last_gig": "2017-08-30"}, {"venueid": 8996, "venuename": "Pilgrim Sand", "city": "Plymouth", "state": "MA", "address": "150 Warren Ave", "lat": "41.95843670", "lng": "-70.66725760", "facebookurl": null, "gig_count": 7, "band_count": 6, "first_gig": "2016-12-09", "last_gig": "2017-02-11"}, {"venueid": 2960, "venuename": "Zumix", "city": "East Boston", "state": "MA", "address": "202 Maverick Street", "lat": null, "lng": null, "facebookurl": null, "gig_count": 7, "band_count": 7, "first_gig": "2017-01-27", "last_gig": "2019-03-09"}, {"venueid": 9304, "venuename": "Joe's American Bar & Grill", "city": "Hanover", "state": "MA", "address": "2087 Washington Street", "lat": null, "lng": null, "facebookurl": null, "gig_count": 7, "band_count": 5, "first_gig": "2012-07-07", "last_gig": "2012-12-15"}, {"venueid": 8833, "venuename": "Chubby's", "city": "North Providence", "state": "RI", "address": "Smith Street", "lat": null, "lng": null, "facebookurl": null, "gig_count": 7, "band_count": 1, "first_gig": "2012-06-01", "last_gig": "2012-12-07"}, {"venueid": 8978, "venuename": "The Wharf - Marthas Vineyard", "city": "Edgartown", "state": "MA", "address": "3 Main street", "lat": null, "lng": null, "facebookurl": null, "gig_count": 7, "band_count": 1, "first_gig": "2012-06-01", "last_gig": "2012-09-28"}, {"venueid": 10693, "venuename": "The Haven", "city": "Boston", "state": "MA", "address": "2 Perkins St", "lat": "42.3217487", "lng": "-71.1104304", "facebookurl": "https://www.facebook.com/thehavenjp/", "gig_count": 7, "band_count": 4, "first_gig": "2016-11-16", "last_gig": "2017-07-01"}, {"venueid": 1062, "venuename": "Coolidge Corner Movie Theatre", "city": "Brookline", "state": "MA", "address": "290 Harvard Street", "lat": null, "lng": null, "facebookurl": null, "gig_count": 7, "band_count": 5, "first_gig": "2017-01-08", "last_gig": "2019-03-28"}, {"venueid": 10620, "venuename": "Victory Grille", "city": "Dedham", "state": "MA", "address": "233 Elm St", "lat": "42.2280319", "lng": "-71.17835409999", "facebookurl": null, "gig_count": 7, "band_count": 2, "first_gig": "2017-01-28", "last_gig": "2017-11-25"}, {"venueid": 3780, "venuename": "Bill Ash's Lounge", "city": "Revere", "state": "MA", "address": "78 Revere Beach Boulevard", "lat": null, "lng": null, "facebookurl": null, "gig_count": 7, "band_count": 2, "first_gig": "2012-06-23", "last_gig": "2014-09-26"}, {"venueid": 5956, "venuename": "Chopsticks Lounge", "city": "Leominster", "state": "MA", "address": null, "lat": null, "lng": null, "facebookurl": null, "gig_count": 7, "band_count": 1, "first_gig": "2012-11-09", "last_gig": "2013-03-02"}, {"venueid": 8932, "venuename": "The Dogwatch", "city": "Scituate", "state": "MA", "address": "9 Beaver Damm Rd", "lat": null, "lng": null, "facebookurl": null, "gig_count": 7, "band_count": 2, "first_gig": "2013-01-25", "last_gig": "2013-08-30"}, {"venueid": 5903, "venuename": "The Varsity Club", "city": "Quincy", "state": "MA", "address": "33 Independance Ave.,", "lat": "42.25287720", "lng": "-71.00227049999", "facebookurl": null, "gig_count": 7, "band_count": 4, "first_gig": "2012-06-01", "last_gig": "2012-12-07"}, {"venueid": 1420, "venuename": "The Lafayette", "city": "Taunton", "state": "MA", "address": null, "lat": "41.900921", "lng": "-71.08876", "facebookurl": null, "gig_count": 7, "band_count": 6, "first_gig": "2012-07-29", "last_gig": "2019-04-20"}, {"venueid": 1318, "venuename": "Berklee Cafe", "city": "boston", "state": "MA", "address": "150 Massachusettes ave", "lat": null, "lng": null, "facebookurl": null, "gig_count": 7, "band_count": 6, "first_gig": "2018-07-02", "last_gig": "2019-07-09"}, {"venueid": 9294, "venuename": "BACKPAGE JAZZ AND COMEDY CLUB", "city": "LOWELL", "state": "MA", "address": "15 KEARNEY SQ", "lat": null, "lng": null, "facebookurl": null, "gig_count": 7, "band_count": 4, "first_gig": "2012-06-01", "last_gig": "2017-01-07"}, {"venueid": 10823, "venuename": "T.K. O'Malley's Restaurant & Pub", "city": "Scituate", "state": "MA", "address": " ", "lat": "42.195929", "lng": "-70.7258633", "facebookurl": null, "gig_count": 7, "band_count": 2, "first_gig": "2017-01-20", "last_gig": "2018-04-07"}, {"venueid": 5008, "venuename": "Museum of Transportationl", "city": "Brookline", "state": "MA", "address": "15 Newton St", "lat": null, "lng": null, "facebookurl": null, "gig_count": 7, "band_count": 7, "first_gig": "2017-09-29", "last_gig": "2019-07-03"}, {"venueid": 9403, "venuename": "Turner's Yard", "city": "Pembroke", "state": "MA", "address": "615 Washington St", "lat": null, "lng": null, "facebookurl": null, "gig_count": 7, "band_count": 2, "first_gig": "2013-05-04", "last_gig": "2014-09-26"}, {"venueid": 10924, "venuename": "Trackside Bar & Grill", "city": "East Bridgewater", "state": "MA", "address": " ", "lat": "42.0334341", "lng": "-70.95920959999", "facebookurl": null, "gig_count": 7, "band_count": 3, "first_gig": "2017-12-30", "last_gig": "2018-04-20"}, {"venueid": 10808, "venuename": "Waterfall Bar Grille", "city": "Canton", "state": "MA", "address": "643 Washington St", "lat": "42.1548479", "lng": "-71.1453775", "facebookurl": null, "gig_count": 7, "band_count": 3, "first_gig": "2016-12-31", "last_gig": "2018-02-23"}, {"venueid": 10842, "venuename": "Envoy", "city": "Boston", "state": "MA", "address": " ", "lat": "42.3600825", "lng": "-71.0588801", "facebookurl": null, "gig_count": 7, "band_count": 3, "first_gig": "2017-01-30", "last_gig": "2018-12-23"}, {"venueid": 10635, "venuename": "Tap City Grille", "city": "Barnstable", "state": "MA", "address": "586 Main St", "lat": "41.6498603", "lng": "-70.2900329", "facebookurl": "https://www.facebook.com/tapcitygrille/", "gig_count": 7, "band_count": 2, "first_gig": "2016-11-18", "last_gig": "2017-04-08"}, {"venueid": 9354, "venuename": "Rum Runners Bar & Grill", "city": "Dennisport", "state": "MA", "address": "243 Lower County Rd", "lat": null, "lng": null, "facebookurl": null, "gig_count": 7, "band_count": 1, "first_gig": "2013-04-26", "last_gig": "2014-07-25"}, {"venueid": 8389, "venuename": "St John's Athletic Club", "city": "Fall River", "state": "MA", "address": "Rodman Street", "lat": null, "lng": null, "facebookurl": null, "gig_count": 7, "band_count": 1, "first_gig": "2012-06-09", "last_gig": "2012-12-01"}, {"venueid": 6399, "venuename": "Campanelli Stadium aul", "city": "Brockton", "state": "MA", "address": "Forest Ave", "lat": null, "lng": null, "facebookurl": null, "gig_count": 7, "band_count": 7, "first_gig": "2015-07-26", "last_gig": "2019-06-15"}, {"venueid": 3275, "venuename": "Museum of Science", "city": "Boston", "state": "MA", "address": null, "lat": "42.35172720", "lng": "-71.04086239999", "facebookurl": null, "gig_count": 7, "band_count": 7, "first_gig": "2017-03-03", "last_gig": "2019-03-27"}, {"venueid": 7814, "venuename": "Vincents Night Club Inclo", "city": "Randolph", "state": "MA", "address": "6 Billings St", "lat": "42.2028", "lng": "-71.0661", "facebookurl": null, "gig_count": 7, "band_count": 6, "first_gig": "2017-01-19", "last_gig": "2019-06-27"}, {"venueid": 6682, "venuename": "Gourmet Oriental Restaurant", "city": "Weymouth", "state": "MA", "address": "625 Washingtion Street", "lat": null, "lng": null, "facebookurl": null, "gig_count": 6, "band_count": 1, "first_gig": "2013-12-15", "last_gig": "2015-07-12"}, {"venueid": 10525, "venuename": "The Mooring Bar ", "city": "Weymouth", "state": "MA", "address": "1172 Cambridge St.", "lat": null, "lng": null, "facebookurl": null, "gig_count": 6, "band_count": 2, "first_gig": "2014-08-09", "last_gig": "2016-11-04"}, {"venueid": 10575, "venuename": "Kelly's Cellar", "city": "Quincy", "state": "MA", "address": null, "lat": null, "lng": null, "facebookurl": null, "gig_count": 6, "band_count": 2, "first_gig": "2015-07-25", "last_gig": "2015-11-21"}, {"venueid": 10576, "venuename": "Waxy O'Connors Woburn", "city": "Woburn", "state": "MA", "address": "1 Rainin Road", "lat": "42.4792618", "lng": "-71.1522765", "facebookurl": "https://www.facebook.com/waxys.woburn/", "gig_count": 6, "band_count": 2, "first_gig": "2015-09-11", "last_gig": "2015-12-11"}, {"venueid": 10590, "venuename": "Plaza Azteca", "city": "6 Whiting St", "state": "HINGHAM", "address": null, "lat": null, "lng": null, "facebookurl": null, "gig_count": 6, "band_count": 1, "first_gig": "2015-11-19", "last_gig": "2015-12-31"}, {"venueid": 4761, "venuename": "Sakura Tokyo Restaurant", "city": "Worcester", "state": "MA", "address": "640 Park Ave.", "lat": null, "lng": null, "facebookurl": null, "gig_count": 6, "band_count": 1, "first_gig": "2012-12-07", "last_gig": "2013-04-06"}, {"venueid": 10875, "venuename": "J.R. Brody's Tavern", "city": "Falmouth", "state": "MA", "address": " ", "lat": "41.5532208", "lng": "-70.60858859999", "facebookurl": null, "gig_count": 6, "band_count": 2, "first_gig": "2017-08-25", "last_gig": "2018-07-27"}, {"venueid": 9226, "venuename": "Hibernia  (formerly Blackthorn Tavern)", "city": "Easton", "state": "MA", "address": "402 Turnpike Street", "lat": null, "lng": null, "facebookurl": null, "gig_count": 6, "band_count": 2, "first_gig": "2013-06-08", "last_gig": "2013-12-06"}, {"venueid": 2709, "venuename": "SUFFOLK DOWNS RACE TRACKl", "city": "Boston", "state": "MA", "address": null, "lat": "42.35172720", "lng": "-71.04086239999", "facebookurl": null, "gig_count": 6, "band_count": 6, "first_gig": "2018-07-15", "last_gig": "2018-07-15"}, {"venueid": 10629, "venuename": "Tavolino Westborough", "city": "Westborough", "state": "MA", "address": "33 E Main St", "lat": "42.271801", "lng": "-71.6099509", "facebookurl": null, "gig_count": 6, "band_count": 1, "first_gig": "2016-11-17", "last_gig": "2017-04-20"}, {"venueid": 5273, "venuename": "DOYLES PUB", "city": "EASTON", "state": "MA", "address": "RTE 138", "lat": null, "lng": null, "facebookurl": null, "gig_count": 6, "band_count": 2, "first_gig": "2012-09-14", "last_gig": "2012-12-21"}, {"venueid": 9190, "venuename": "Crazy Eddie's", "city": "Plymouth", "state": "MA", "address": "6 Townwharf rd", "lat": null, "lng": null, "facebookurl": null, "gig_count": 6, "band_count": 3, "first_gig": "2012-06-15", "last_gig": "2012-09-15"}, {"venueid": 9159, "venuename": "Rock Vegas Bar and Grill ", "city": "Rockland", "state": "MA", "address": "Union Street", "lat": null, "lng": null, "facebookurl": null, "gig_count": 6, "band_count": 4, "first_gig": "2012-06-02", "last_gig": "2012-10-20"}, {"venueid": 9106, "venuename": "The All Seasons Restaurant", "city": "Halifax", "state": "MA", "address": "327 Plymouth Street", "lat": null, "lng": null, "facebookurl": null, "gig_count": 6, "band_count": 2, "first_gig": "2012-12-15", "last_gig": "2014-04-05"}, {"venueid": 9095, "venuename": "Leon's Place", "city": "Plymouth", "state": "MA", "address": "47 Court Street", "lat": "41.95843670", "lng": "-70.66725760", "facebookurl": null, "gig_count": 6, "band_count": 1, "first_gig": "2012-06-15", "last_gig": "2012-12-28"}, {"venueid": 2034, "venuename": "The Courtyard", "city": "Bourne", "state": "MA", "address": "1337 County Road", "lat": null, "lng": null, "facebookurl": null, "gig_count": 6, "band_count": 2, "first_gig": "2012-06-08", "last_gig": "2012-08-03"}, {"venueid": 9060, "venuename": "Great American Tavern", "city": "North Reading", "state": "MA", "address": "303 Main Street", "lat": null, "lng": null, "facebookurl": null, "gig_count": 6, "band_count": 3, "first_gig": "2012-06-23", "last_gig": "2015-04-10"}, {"venueid": 10876, "venuename": "Battle Road Brew House", "city": "Maynard", "state": "MA", "address": " ", "lat": "42.4334903", "lng": "-71.4495058", "facebookurl": null, "gig_count": 6, "band_count": 2, "first_gig": "2017-04-22", "last_gig": "2019-01-19"}, {"venueid": 5898, "venuename": "Sandy's Clam Bar", "city": "Glens Falls", "state": "NY", "address": "41 South Street", "lat": null, "lng": null, "facebookurl": null, "gig_count": 6, "band_count": 1, "first_gig": "2014-02-08", "last_gig": "2016-02-19"},